{
  "metadata": {
    "description": "Top 1000 cities by population",
    "source": "GeoNames via OpenDataSoft",
    "count": 1000,
    "fields": [
      "id",
      "name",
      "ascii_name",
      "country",
      "country_code",
      "latitude",
      "longitude",
      "elevation_m",
      "population",
      "timezone"
    ]
  },
  "cities": [
    {
      "id": 0,
      "name": "Shanghai",
      "ascii_name": "Shanghai",
      "country": "China",
      "country_code": "CN",
      "latitude": 31.22222,
      "longitude": 121.45806,
      "elevation_m": 12,
      "population": 24874500,
      "timezone": "Asia/Shanghai"
    },
    {
      "id": 1,
      "name": "Beijing",
      "ascii_name": "Beijing",
      "country": "China",
      "country_code": "CN",
      "latitude": 39.9075,
      "longitude": 116.39723,
      "elevation_m": 49,
      "population": 18960744,
      "timezone": "Asia/Shanghai"
    },
    {
      "id": 2,
      "name": "Shenzhen",
      "ascii_name": "Shenzhen",
      "country": "China",
      "country_code": "CN",
      "latitude": 22.54554,
      "longitude": 114.0683,
      "elevation_m": 4,
      "population": 17494398,
      "timezone": "Asia/Shanghai"
    },
    {
      "id": 3,
      "name": "Guangzhou",
      "ascii_name": "Guangzhou",
      "country": "China",
      "country_code": "CN",
      "latitude": 23.11667,
      "longitude": 113.25,
      "elevation_m": 15,
      "population": 16096724,
      "timezone": "Asia/Shanghai"
    },
    {
      "id": 4,
      "name": "Kinshasa",
      "ascii_name": "Kinshasa",
      "country": "Congo, Democratic Republic of the",
      "country_code": "CD",
      "latitude": -4.32758,
      "longitude": 15.31357,
      "elevation_m": 281,
      "population": 16000000,
      "timezone": "Africa/Kinshasa"
    },
    {
      "id": 5,
      "name": "Istanbul",
      "ascii_name": "Istanbul",
      "country": "Turkey",
      "country_code": "TR",
      "latitude": 41.01384,
      "longitude": 28.94966,
      "elevation_m": 39,
      "population": 15701602,
      "timezone": "Europe/Istanbul"
    },
    {
      "id": 6,
      "name": "Lagos",
      "ascii_name": "Lagos",
      "country": "Nigeria",
      "country_code": "NG",
      "latitude": 6.45407,
      "longitude": 3.39467,
      "elevation_m": 11,
      "population": 15388000,
      "timezone": "Africa/Lagos"
    },
    {
      "id": 7,
      "name": "Ho Chi Minh City",
      "ascii_name": "Ho Chi Minh City",
      "country": "Viet Nam",
      "country_code": "VN",
      "latitude": 10.82302,
      "longitude": 106.62965,
      "elevation_m": 7,
      "population": 14002598,
      "timezone": "Asia/Ho_Chi_Minh"
    },
    {
      "id": 8,
      "name": "Chengdu",
      "ascii_name": "Chengdu",
      "country": "China",
      "country_code": "CN",
      "latitude": 30.66667,
      "longitude": 104.06667,
      "elevation_m": 499,
      "population": 13568357,
      "timezone": "Asia/Shanghai"
    },
    {
      "id": 9,
      "name": "Lahore",
      "ascii_name": "Lahore",
      "country": "Pakistan",
      "country_code": "PK",
      "latitude": 31.558,
      "longitude": 74.35071,
      "elevation_m": 216,
      "population": 13004135,
      "timezone": "Asia/Karachi"
    },
    {
      "id": 10,
      "name": "Mumbai",
      "ascii_name": "Mumbai",
      "country": "India",
      "country_code": "IN",
      "latitude": 19.07283,
      "longitude": 72.88261,
      "elevation_m": 8,
      "population": 12691836,
      "timezone": "Asia/Kolkata"
    },
    {
      "id": 11,
      "name": "São Paulo",
      "ascii_name": "Sao Paulo",
      "country": "Brazil",
      "country_code": "BR",
      "latitude": -23.5475,
      "longitude": -46.63611,
      "elevation_m": 769,
      "population": 12400232,
      "timezone": "America/Sao_Paulo"
    },
    {
      "id": 12,
      "name": "Mexico City",
      "ascii_name": "Mexico City",
      "country": "Mexico",
      "country_code": "MX",
      "latitude": 19.42847,
      "longitude": -99.12766,
      "elevation_m": 2240,
      "population": 12294193,
      "timezone": "America/Mexico_City"
    },
    {
      "id": 13,
      "name": "Karachi",
      "ascii_name": "Karachi",
      "country": "Pakistan",
      "country_code": "PK",
      "latitude": 24.8608,
      "longitude": 67.0104,
      "elevation_m": 8,
      "population": 11624219,
      "timezone": "Asia/Karachi"
    },
    {
      "id": 14,
      "name": "Tianjin",
      "ascii_name": "Tianjin",
      "country": "China",
      "country_code": "CN",
      "latitude": 39.14222,
      "longitude": 117.17667,
      "elevation_m": 11,
      "population": 11090314,
      "timezone": "Asia/Shanghai"
    },
    {
      "id": 15,
      "name": "Delhi",
      "ascii_name": "Delhi",
      "country": "India",
      "country_code": "IN",
      "latitude": 28.65195,
      "longitude": 77.23149,
      "elevation_m": 227,
      "population": 11034555,
      "timezone": "Asia/Kolkata"
    },
    {
      "id": 16,
      "name": "Wuhan",
      "ascii_name": "Wuhan",
      "country": "China",
      "country_code": "CN",
      "latitude": 30.58333,
      "longitude": 114.26667,
      "elevation_m": 20,
      "population": 10392693,
      "timezone": "Asia/Shanghai"
    },
    {
      "id": 17,
      "name": "Moscow",
      "ascii_name": "Moscow",
      "country": "Russian Federation",
      "country_code": "RU",
      "latitude": 55.75204,
      "longitude": 37.61781,
      "elevation_m": 155,
      "population": 10381222,
      "timezone": "Europe/Moscow"
    },
    {
      "id": 18,
      "name": "Dhaka",
      "ascii_name": "Dhaka",
      "country": "Bangladesh",
      "country_code": "BD",
      "latitude": 23.7104,
      "longitude": 90.40744,
      "elevation_m": 23,
      "population": 10356500,
      "timezone": "Asia/Dhaka"
    },
    {
      "id": 19,
      "name": "Seoul",
      "ascii_name": "Seoul",
      "country": "Korea, Republic of",
      "country_code": "KR",
      "latitude": 37.566,
      "longitude": 126.9784,
      "elevation_m": 38,
      "population": 10349312,
      "timezone": "Asia/Seoul"
    },
    {
      "id": 20,
      "name": "Tokyo",
      "ascii_name": "Tokyo",
      "country": "Japan",
      "country_code": "JP",
      "latitude": 35.6895,
      "longitude": 139.69171,
      "elevation_m": 44,
      "population": 9733276,
      "timezone": "Asia/Tokyo"
    },
    {
      "id": 21,
      "name": "Dongguan",
      "ascii_name": "Dongguan",
      "country": "China",
      "country_code": "CN",
      "latitude": 23.01797,
      "longitude": 113.74866,
      "elevation_m": 1,
      "population": 9644871,
      "timezone": "Asia/Shanghai"
    },
    {
      "id": 22,
      "name": "Cairo",
      "ascii_name": "Cairo",
      "country": "Egypt",
      "country_code": "EG",
      "latitude": 30.06263,
      "longitude": 31.24967,
      "elevation_m": 23,
      "population": 9606916,
      "timezone": "Africa/Cairo"
    },
    {
      "id": 23,
      "name": "Xi’an",
      "ascii_name": "Xi'an",
      "country": "China",
      "country_code": "CN",
      "latitude": 34.25833,
      "longitude": 108.92861,
      "elevation_m": 416,
      "population": 9600000,
      "timezone": "Asia/Shanghai"
    },
    {
      "id": 24,
      "name": "Johannesburg",
      "ascii_name": "Johannesburg",
      "country": "South Africa",
      "country_code": "ZA",
      "latitude": -26.20227,
      "longitude": 28.04363,
      "elevation_m": 1767,
      "population": 9418183,
      "timezone": "Africa/Johannesburg"
    },
    {
      "id": 25,
      "name": "Nanjing",
      "ascii_name": "Nanjing",
      "country": "China",
      "country_code": "CN",
      "latitude": 32.06167,
      "longitude": 118.77778,
      "elevation_m": 22,
      "population": 9314685,
      "timezone": "Asia/Shanghai"
    },
    {
      "id": 26,
      "name": "Hangzhou",
      "ascii_name": "Hangzhou",
      "country": "China",
      "country_code": "CN",
      "latitude": 30.29365,
      "longitude": 120.16142,
      "elevation_m": 12,
      "population": 9236032,
      "timezone": "Asia/Shanghai"
    },
    {
      "id": 27,
      "name": "Foshan",
      "ascii_name": "Foshan",
      "country": "China",
      "country_code": "CN",
      "latitude": 23.02677,
      "longitude": 113.13148,
      "elevation_m": 5,
      "population": 9042509,
      "timezone": "Asia/Shanghai"
    },
    {
      "id": 28,
      "name": "London",
      "ascii_name": "London",
      "country": "United Kingdom",
      "country_code": "GB",
      "latitude": 51.50853,
      "longitude": -0.12574,
      "elevation_m": 25,
      "population": 8961989,
      "timezone": "Europe/London"
    },
    {
      "id": 29,
      "name": "New York City",
      "ascii_name": "New York City",
      "country": "United States",
      "country_code": "US",
      "latitude": 40.71427,
      "longitude": -74.00597,
      "elevation_m": "10",
      "population": 8804190,
      "timezone": "America/New_York"
    },
    {
      "id": 30,
      "name": "Jakarta",
      "ascii_name": "Jakarta",
      "country": "Indonesia",
      "country_code": "ID",
      "latitude": -6.21462,
      "longitude": 106.84513,
      "elevation_m": 16,
      "population": 8540121,
      "timezone": "Asia/Jakarta"
    },
    {
      "id": 31,
      "name": "Bengaluru",
      "ascii_name": "Bengaluru",
      "country": "India",
      "country_code": "IN",
      "latitude": 12.97194,
      "longitude": 77.59369,
      "elevation_m": "920",
      "population": 8495492,
      "timezone": "Asia/Kolkata"
    },
    {
      "id": 32,
      "name": "Hanoi",
      "ascii_name": "Hanoi",
      "country": "Viet Nam",
      "country_code": "VN",
      "latitude": 21.0245,
      "longitude": 105.84117,
      "elevation_m": 10,
      "population": 8053663,
      "timezone": "Asia/Bangkok"
    },
    {
      "id": 33,
      "name": "Taipei",
      "ascii_name": "Taipei",
      "country": "Taiwan, China",
      "country_code": "TW",
      "latitude": 25.05306,
      "longitude": 121.52639,
      "elevation_m": 5,
      "population": 7871900,
      "timezone": "Asia/Taipei"
    },
    {
      "id": 34,
      "name": "Lima",
      "ascii_name": "Lima",
      "country": "Peru",
      "country_code": "PE",
      "latitude": -12.04318,
      "longitude": -77.02824,
      "elevation_m": 152,
      "population": 7737002,
      "timezone": "America/Lima"
    },
    {
      "id": 35,
      "name": "Bogotá",
      "ascii_name": "Bogota",
      "country": "Colombia",
      "country_code": "CO",
      "latitude": 4.60971,
      "longitude": -74.08175,
      "elevation_m": 2582,
      "population": 7674366,
      "timezone": "America/Bogota"
    },
    {
      "id": 36,
      "name": "Chongqing",
      "ascii_name": "Chongqing",
      "country": "China",
      "country_code": "CN",
      "latitude": 29.56026,
      "longitude": 106.55771,
      "elevation_m": 289,
      "population": 7457599,
      "timezone": "Asia/Shanghai"
    },
    {
      "id": 37,
      "name": "Hong Kong",
      "ascii_name": "Hong Kong",
      "country": "Hong Kong, China",
      "country_code": "HK",
      "latitude": 22.27832,
      "longitude": 114.17469,
      "elevation_m": 60,
      "population": 7396076,
      "timezone": "Asia/Hong_Kong"
    },
    {
      "id": 38,
      "name": "Baghdad",
      "ascii_name": "Baghdad",
      "country": "Iraq",
      "country_code": "IQ",
      "latitude": 33.34058,
      "longitude": 44.40088,
      "elevation_m": 41,
      "population": 7216000,
      "timezone": "Asia/Baghdad"
    },
    {
      "id": 39,
      "name": "Qingdao",
      "ascii_name": "Qingdao",
      "country": "China",
      "country_code": "CN",
      "latitude": 36.06488,
      "longitude": 120.38042,
      "elevation_m": 16,
      "population": 7172451,
      "timezone": "Asia/Shanghai"
    },
    {
      "id": 40,
      "name": "Tehran",
      "ascii_name": "Tehran",
      "country": "Iran, Islamic Rep. of",
      "country_code": "IR",
      "latitude": 35.69439,
      "longitude": 51.42151,
      "elevation_m": 1178,
      "population": 7153309,
      "timezone": "Asia/Tehran"
    },
    {
      "id": 41,
      "name": "Shenyang",
      "ascii_name": "Shenyang",
      "country": "China",
      "country_code": "CN",
      "latitude": 41.79222,
      "longitude": 123.43278,
      "elevation_m": 53,
      "population": 7050000,
      "timezone": "Asia/Shanghai"
    },
    {
      "id": 42,
      "name": "Hyderabad",
      "ascii_name": "Hyderabad",
      "country": "India",
      "country_code": "IN",
      "latitude": 17.38405,
      "longitude": 78.45636,
      "elevation_m": 515,
      "population": 6993262,
      "timezone": "Asia/Kolkata"
    },
    {
      "id": 43,
      "name": "Rio de Janeiro",
      "ascii_name": "Rio de Janeiro",
      "country": "Brazil",
      "country_code": "BR",
      "latitude": -22.90642,
      "longitude": -43.18223,
      "elevation_m": 12,
      "population": 6747815,
      "timezone": "America/Sao_Paulo"
    },
    {
      "id": 44,
      "name": "Suzhou",
      "ascii_name": "Suzhou",
      "country": "China",
      "country_code": "CN",
      "latitude": 31.30408,
      "longitude": 120.59538,
      "elevation_m": 10,
      "population": 6715559,
      "timezone": "Asia/Shanghai"
    },
    {
      "id": 45,
      "name": "Ahmedabad",
      "ascii_name": "Ahmedabad",
      "country": "India",
      "country_code": "IN",
      "latitude": 23.02579,
      "longitude": 72.58727,
      "elevation_m": 56,
      "population": 6357693,
      "timezone": "Asia/Kolkata"
    },
    {
      "id": 46,
      "name": "Abidjan",
      "ascii_name": "Abidjan",
      "country": "Côte d'Ivoire",
      "country_code": "CI",
      "latitude": 5.35444,
      "longitude": -4.00167,
      "elevation_m": 50,
      "population": 6321017,
      "timezone": "Africa/Abidjan"
    },
    {
      "id": 47,
      "name": "Singapore",
      "ascii_name": "Singapore",
      "country": "Singapore",
      "country_code": "SG",
      "latitude": 1.28967,
      "longitude": 103.85007,
      "elevation_m": 23,
      "population": 5638700,
      "timezone": "Asia/Singapore"
    },
    {
      "id": 48,
      "name": "Sydney",
      "ascii_name": "Sydney",
      "country": "Australia",
      "country_code": "AU",
      "latitude": -33.86785,
      "longitude": 151.20732,
      "elevation_m": 58,
      "population": 5557233,
      "timezone": "Australia/Sydney"
    },
    {
      "id": 49,
      "name": "Dar es Salaam",
      "ascii_name": "Dar es Salaam",
      "country": "Tanzania, United Republic of",
      "country_code": "TZ",
      "latitude": -6.82349,
      "longitude": 39.26951,
      "elevation_m": 24,
      "population": 5383728,
      "timezone": "Africa/Dar_es_Salaam"
    },
    {
      "id": 50,
      "name": "Saint Petersburg",
      "ascii_name": "Saint Petersburg",
      "country": "Russian Federation",
      "country_code": "RU",
      "latitude": 59.93863,
      "longitude": 30.31413,
      "elevation_m": 11,
      "population": 5351935,
      "timezone": "Europe/Moscow"
    },
    {
      "id": 51,
      "name": "Melbourne",
      "ascii_name": "Melbourne",
      "country": "Australia",
      "country_code": "AU",
      "latitude": -37.814,
      "longitude": 144.96332,
      "elevation_m": 25,
      "population": 5350705,
      "timezone": "Australia/Melbourne"
    },
    {
      "id": 52,
      "name": "Alexandria",
      "ascii_name": "Alexandria",
      "country": "Egypt",
      "country_code": "EG",
      "latitude": 31.20176,
      "longitude": 29.91582,
      "elevation_m": 9,
      "population": 5263542,
      "timezone": "Africa/Cairo"
    },
    {
      "id": 53,
      "name": "Harbin",
      "ascii_name": "Harbin",
      "country": "China",
      "country_code": "CN",
      "latitude": 45.75,
      "longitude": 126.65,
      "elevation_m": 140,
      "population": 5242897,
      "timezone": "Asia/Shanghai"
    },
    {
      "id": 54,
      "name": "Bangkok",
      "ascii_name": "Bangkok",
      "country": "Thailand",
      "country_code": "TH",
      "latitude": 13.75398,
      "longitude": 100.50144,
      "elevation_m": 12,
      "population": 5104476,
      "timezone": "Asia/Bangkok"
    },
    {
      "id": 55,
      "name": "Hefei",
      "ascii_name": "Hefei",
      "country": "China",
      "country_code": "CN",
      "latitude": 31.86389,
      "longitude": 117.28083,
      "elevation_m": 24,
      "population": 5050000,
      "timezone": "Asia/Shanghai"
    },
    {
      "id": 56,
      "name": "Dalian",
      "ascii_name": "Dalian",
      "country": "China",
      "country_code": "CN",
      "latitude": 38.91222,
      "longitude": 121.60222,
      "elevation_m": 33,
      "population": 4913879,
      "timezone": "Asia/Shanghai"
    },
    {
      "id": 57,
      "name": "Kano",
      "ascii_name": "Kano",
      "country": "Nigeria",
      "country_code": "NG",
      "latitude": 12.00012,
      "longitude": 8.51672,
      "elevation_m": 484,
      "population": 4910000,
      "timezone": "Africa/Lagos"
    },
    {
      "id": 58,
      "name": "Santiago",
      "ascii_name": "Santiago",
      "country": "Chile",
      "country_code": "CL",
      "latitude": -33.45694,
      "longitude": -70.64827,
      "elevation_m": 556,
      "population": 4837295,
      "timezone": "America/Santiago"
    },
    {
      "id": 59,
      "name": "Cape Town",
      "ascii_name": "Cape Town",
      "country": "South Africa",
      "country_code": "ZA",
      "latitude": -33.92584,
      "longitude": 18.42322,
      "elevation_m": 25,
      "population": 4772846,
      "timezone": "Africa/Johannesburg"
    },
    {
      "id": 60,
      "name": "Peshawar",
      "ascii_name": "Peshawar",
      "country": "Pakistan",
      "country_code": "PK",
      "latitude": 34.008,
      "longitude": 71.57849,
      "elevation_m": 340,
      "population": 4758762,
      "timezone": "Asia/Karachi"
    },
    {
      "id": 61,
      "name": "Changchun",
      "ascii_name": "Changchun",
      "country": "China",
      "country_code": "CN",
      "latitude": 43.88,
      "longitude": 125.32278,
      "elevation_m": 206,
      "population": 4714996,
      "timezone": "Asia/Shanghai"
    },
    {
      "id": 62,
      "name": "Jeddah",
      "ascii_name": "Jeddah",
      "country": "Saudi Arabia",
      "country_code": "SA",
      "latitude": 21.49012,
      "longitude": 39.18624,
      "elevation_m": 7,
      "population": 4697000,
      "timezone": "Asia/Riyadh"
    },
    {
      "id": 63,
      "name": "Chennai",
      "ascii_name": "Chennai",
      "country": "India",
      "country_code": "IN",
      "latitude": 13.08784,
      "longitude": 80.27847,
      "elevation_m": 14,
      "population": 4681087,
      "timezone": "Asia/Kolkata"
    },
    {
      "id": 64,
      "name": "Kolkata",
      "ascii_name": "Kolkata",
      "country": "India",
      "country_code": "IN",
      "latitude": 22.56263,
      "longitude": 88.36304,
      "elevation_m": 11,
      "population": 4631392,
      "timezone": "Asia/Kolkata"
    },
    {
      "id": 65,
      "name": "Xiamen",
      "ascii_name": "Xiamen",
      "country": "China",
      "country_code": "CN",
      "latitude": 24.47979,
      "longitude": 118.08187,
      "elevation_m": 12,
      "population": 4617251,
      "timezone": "Asia/Shanghai"
    },
    {
      "id": 66,
      "name": "Surat",
      "ascii_name": "Surat",
      "country": "India",
      "country_code": "IN",
      "latitude": 21.19594,
      "longitude": 72.83023,
      "elevation_m": 20,
      "population": 4591246,
      "timezone": "Asia/Kolkata"
    },
    {
      "id": 67,
      "name": "Yangon",
      "ascii_name": "Yangon",
      "country": "Myanmar",
      "country_code": "MM",
      "latitude": 16.80528,
      "longitude": 96.15611,
      "elevation_m": 30,
      "population": 4477638,
      "timezone": "Asia/Yangon"
    },
    {
      "id": 68,
      "name": "Bao'an",
      "ascii_name": "Bao'an",
      "country": "China",
      "country_code": "CN",
      "latitude": 22.55213,
      "longitude": 113.88288,
      "elevation_m": -9999,
      "population": 4476554,
      "timezone": "Asia/Shanghai"
    },
    {
      "id": 69,
      "name": "Kabul",
      "ascii_name": "Kabul",
      "country": "Afghanistan",
      "country_code": "AF",
      "latitude": 34.52813,
      "longitude": 69.17233,
      "elevation_m": 1798,
      "population": 4434550,
      "timezone": "Asia/Kabul"
    },
    {
      "id": 70,
      "name": "Nairobi",
      "ascii_name": "Nairobi",
      "country": "Kenya",
      "country_code": "KE",
      "latitude": -1.28333,
      "longitude": 36.81667,
      "elevation_m": 1684,
      "population": 4397073,
      "timezone": "Africa/Nairobi"
    },
    {
      "id": 71,
      "name": "Wuxi",
      "ascii_name": "Wuxi",
      "country": "China",
      "country_code": "CN",
      "latitude": 31.56887,
      "longitude": 120.28857,
      "elevation_m": 10,
      "population": 4396835,
      "timezone": "Asia/Shanghai"
    },
    {
      "id": 72,
      "name": "Giza",
      "ascii_name": "Giza",
      "country": "Egypt",
      "country_code": "EG",
      "latitude": 30.00944,
      "longitude": 31.20861,
      "elevation_m": 19,
      "population": 4367343,
      "timezone": "Africa/Cairo"
    },
    {
      "id": 73,
      "name": "Jinan",
      "ascii_name": "Jinan",
      "country": "China",
      "country_code": "CN",
      "latitude": 36.66833,
      "longitude": 116.99722,
      "elevation_m": 32,
      "population": 4335989,
      "timezone": "Asia/Shanghai"
    },
    {
      "id": 74,
      "name": "Taiyuan",
      "ascii_name": "Taiyuan",
      "country": "China",
      "country_code": "CN",
      "latitude": 37.86944,
      "longitude": 112.56028,
      "elevation_m": 795,
      "population": 4303673,
      "timezone": "Asia/Shanghai"
    },
    {
      "id": 75,
      "name": "Zhengzhou",
      "ascii_name": "Zhengzhou",
      "country": "China",
      "country_code": "CN",
      "latitude": 34.75778,
      "longitude": 113.64861,
      "elevation_m": 104,
      "population": 4253913,
      "timezone": "Asia/Shanghai"
    },
    {
      "id": 76,
      "name": "Bamako",
      "ascii_name": "Bamako",
      "country": "Mali",
      "country_code": "ML",
      "latitude": 12.60915,
      "longitude": -7.97522,
      "elevation_m": 374,
      "population": 4227569,
      "timezone": "Africa/Bamako"
    },
    {
      "id": 77,
      "name": "Riyadh",
      "ascii_name": "Riyadh",
      "country": "Saudi Arabia",
      "country_code": "SA",
      "latitude": 24.68773,
      "longitude": 46.72185,
      "elevation_m": 612,
      "population": 4205961,
      "timezone": "Asia/Riyadh"
    },
    {
      "id": 78,
      "name": "New Taipei City",
      "ascii_name": "New Taipei City",
      "country": "Taiwan, China",
      "country_code": "TW",
      "latitude": 25.06199,
      "longitude": 121.45703,
      "elevation_m": 4,
      "population": 4004367,
      "timezone": "Asia/Taipei"
    },
    {
      "id": 79,
      "name": "New Territories",
      "ascii_name": "New Territories",
      "country": "Hong Kong, China",
      "country_code": "HK",
      "latitude": 22.42441,
      "longitude": 114.11095,
      "elevation_m": 231,
      "population": 3984077,
      "timezone": "Asia/Hong_Kong"
    },
    {
      "id": 80,
      "name": "Shijiazhuang",
      "ascii_name": "Shijiazhuang",
      "country": "China",
      "country_code": "CN",
      "latitude": 38.04139,
      "longitude": 114.47861,
      "elevation_m": 77,
      "population": 3938513,
      "timezone": "Asia/Shanghai"
    },
    {
      "id": 81,
      "name": "Chattogram",
      "ascii_name": "Chattogram",
      "country": "Bangladesh",
      "country_code": "BD",
      "latitude": 22.3384,
      "longitude": 91.83168,
      "elevation_m": 15,
      "population": 3920222,
      "timezone": "Asia/Dhaka"
    },
    {
      "id": 82,
      "name": "Addis Ababa",
      "ascii_name": "Addis Ababa",
      "country": "Ethiopia",
      "country_code": "ET",
      "latitude": 9.02497,
      "longitude": 38.74689,
      "elevation_m": 2405,
      "population": 3860000,
      "timezone": "Africa/Addis_Ababa"
    },
    {
      "id": 83,
      "name": "Kunming",
      "ascii_name": "Kunming",
      "country": "China",
      "country_code": "CN",
      "latitude": 25.03889,
      "longitude": 102.71833,
      "elevation_m": 1895,
      "population": 3855346,
      "timezone": "Asia/Shanghai"
    },
    {
      "id": 84,
      "name": "Zhongshan",
      "ascii_name": "Zhongshan",
      "country": "China",
      "country_code": "CN",
      "latitude": 22.52306,
      "longitude": 113.37912,
      "elevation_m": 9,
      "population": 3841873,
      "timezone": "Asia/Shanghai"
    },
    {
      "id": 85,
      "name": "Nanning",
      "ascii_name": "Nanning",
      "country": "China",
      "country_code": "CN",
      "latitude": 22.81667,
      "longitude": 108.31667,
      "elevation_m": 91,
      "population": 3839800,
      "timezone": "Asia/Shanghai"
    },
    {
      "id": 86,
      "name": "Shantou",
      "ascii_name": "Shantou",
      "country": "China",
      "country_code": "CN",
      "latitude": 23.35489,
      "longitude": 116.67876,
      "elevation_m": 3,
      "population": 3838900,
      "timezone": "Asia/Shanghai"
    },
    {
      "id": 87,
      "name": "Los Angeles",
      "ascii_name": "Los Angeles",
      "country": "United States",
      "country_code": "US",
      "latitude": 34.05223,
      "longitude": -118.24368,
      "elevation_m": "89",
      "population": 3820914,
      "timezone": "America/Los_Angeles"
    },
    {
      "id": 88,
      "name": "Faisalabad",
      "ascii_name": "Faisalabad",
      "country": "Pakistan",
      "country_code": "PK",
      "latitude": 31.41554,
      "longitude": 73.08969,
      "elevation_m": 186,
      "population": 3800193,
      "timezone": "Asia/Karachi"
    },
    {
      "id": 89,
      "name": "Dubai",
      "ascii_name": "Dubai",
      "country": "United Arab Emirates",
      "country_code": "AE",
      "latitude": 25.07725,
      "longitude": 55.30927,
      "elevation_m": 24,
      "population": 3790000,
      "timezone": "Asia/Dubai"
    },
    {
      "id": 90,
      "name": "Yokohama",
      "ascii_name": "Yokohama",
      "country": "Japan",
      "country_code": "JP",
      "latitude": 35.43333,
      "longitude": 139.65,
      "elevation_m": 21,
      "population": 3777491,
      "timezone": "Asia/Tokyo"
    },
    {
      "id": 91,
      "name": "Fuzhou",
      "ascii_name": "Fuzhou",
      "country": "China",
      "country_code": "CN",
      "latitude": 26.06139,
      "longitude": 119.30611,
      "elevation_m": 14,
      "population": 3740000,
      "timezone": "Asia/Shanghai"
    },
    {
      "id": 92,
      "name": "Ningbo",
      "ascii_name": "Ningbo",
      "country": "China",
      "country_code": "CN",
      "latitude": 29.87819,
      "longitude": 121.54945,
      "elevation_m": 15,
      "population": 3731203,
      "timezone": "Asia/Shanghai"
    },
    {
      "id": 93,
      "name": "Casablanca",
      "ascii_name": "Casablanca",
      "country": "Morocco",
      "country_code": "MA",
      "latitude": 33.58831,
      "longitude": -7.61138,
      "elevation_m": 27,
      "population": 3665954,
      "timezone": "Africa/Casablanca"
    },
    {
      "id": 94,
      "name": "Ibadan",
      "ascii_name": "Ibadan",
      "country": "Nigeria",
      "country_code": "NG",
      "latitude": 7.37756,
      "longitude": 3.90591,
      "elevation_m": 181,
      "population": 3649000,
      "timezone": "Africa/Lagos"
    },
    {
      "id": 95,
      "name": "Puyang",
      "ascii_name": "Puyang",
      "country": "China",
      "country_code": "CN",
      "latitude": 29.45679,
      "longitude": 119.88872,
      "elevation_m": 76,
      "population": 3590000,
      "timezone": "Asia/Shanghai"
    },
    {
      "id": 96,
      "name": "Ankara",
      "ascii_name": "Ankara",
      "country": "Turkey",
      "country_code": "TR",
      "latitude": 39.91987,
      "longitude": 32.85427,
      "elevation_m": "850",
      "population": 3517182,
      "timezone": "Europe/Istanbul"
    },
    {
      "id": 97,
      "name": "Shiyan",
      "ascii_name": "Shiyan",
      "country": "China",
      "country_code": "CN",
      "latitude": 32.6475,
      "longitude": 110.77806,
      "elevation_m": 247,
      "population": 3460000,
      "timezone": "Asia/Shanghai"
    },
    {
      "id": 98,
      "name": "Berlin",
      "ascii_name": "Berlin",
      "country": "Germany",
      "country_code": "DE",
      "latitude": 52.52437,
      "longitude": 13.41053,
      "elevation_m": "74",
      "population": 3426354,
      "timezone": "Europe/Berlin"
    },
    {
      "id": 99,
      "name": "Tangshan",
      "ascii_name": "Tangshan",
      "country": "China",
      "country_code": "CN",
      "latitude": 39.64381,
      "longitude": 118.18319,
      "elevation_m": 7,
      "population": 3372102,
      "timezone": "Asia/Shanghai"
    },
    {
      "id": 100,
      "name": "Rawalpindi",
      "ascii_name": "Rawalpindi",
      "country": "Pakistan",
      "country_code": "PK",
      "latitude": 33.59733,
      "longitude": 73.0479,
      "elevation_m": 501,
      "population": 3357612,
      "timezone": "Asia/Karachi"
    },
    {
      "id": 101,
      "name": "Lüliang",
      "ascii_name": "Lueliang",
      "country": "China",
      "country_code": "CN",
      "latitude": 37.5192,
      "longitude": 111.14436,
      "elevation_m": 959,
      "population": 3346500,
      "timezone": "Asia/Shanghai"
    },
    {
      "id": 102,
      "name": "Busan",
      "ascii_name": "Busan",
      "country": "Korea, Republic of",
      "country_code": "KR",
      "latitude": 35.10168,
      "longitude": 129.03004,
      "elevation_m": 15,
      "population": 3343903,
      "timezone": "Asia/Seoul"
    },
    {
      "id": 103,
      "name": "Durban",
      "ascii_name": "Durban",
      "country": "South Africa",
      "country_code": "ZA",
      "latitude": -29.8579,
      "longitude": 31.0292,
      "elevation_m": 21,
      "population": 3338026,
      "timezone": "Africa/Johannesburg"
    },
    {
      "id": 104,
      "name": "Changzhou",
      "ascii_name": "Changzhou",
      "country": "China",
      "country_code": "CN",
      "latitude": 31.77359,
      "longitude": 119.95401,
      "elevation_m": 9,
      "population": 3290918,
      "timezone": "Asia/Shanghai"
    },
    {
      "id": 105,
      "name": "Madrid",
      "ascii_name": "Madrid",
      "country": "Spain",
      "country_code": "ES",
      "latitude": 40.4165,
      "longitude": -3.70256,
      "elevation_m": 665,
      "population": 3255944,
      "timezone": "Europe/Madrid"
    },
    {
      "id": 106,
      "name": "Pyongyang",
      "ascii_name": "Pyongyang",
      "country": "Korea, Dem. People's Rep. of",
      "country_code": "KP",
      "latitude": 39.03385,
      "longitude": 125.75432,
      "elevation_m": 43,
      "population": 3222000,
      "timezone": "Asia/Pyongyang"
    },
    {
      "id": 107,
      "name": "Zibo",
      "ascii_name": "Zibo",
      "country": "China",
      "country_code": "CN",
      "latitude": 36.79056,
      "longitude": 118.06333,
      "elevation_m": 51,
      "population": 3129228,
      "timezone": "Asia/Shanghai"
    },
    {
      "id": 108,
      "name": "Pune",
      "ascii_name": "Pune",
      "country": "India",
      "country_code": "IN",
      "latitude": 18.51957,
      "longitude": 73.85535,
      "elevation_m": 554,
      "population": 3124458,
      "timezone": "Asia/Kolkata"
    },
    {
      "id": 109,
      "name": "Bursa",
      "ascii_name": "Bursa",
      "country": "Turkey",
      "country_code": "TR",
      "latitude": 40.19559,
      "longitude": 29.06013,
      "elevation_m": 155,
      "population": 3101833,
      "timezone": "Europe/Istanbul"
    },
    {
      "id": 110,
      "name": "Changsha",
      "ascii_name": "Changsha",
      "country": "China",
      "country_code": "CN",
      "latitude": 28.19874,
      "longitude": 112.97087,
      "elevation_m": 67,
      "population": 3093980,
      "timezone": "Asia/Shanghai"
    },
    {
      "id": 111,
      "name": "Quezon City",
      "ascii_name": "Quezon City",
      "country": "Philippines",
      "country_code": "PH",
      "latitude": 14.6488,
      "longitude": 121.0509,
      "elevation_m": 49,
      "population": 3084270,
      "timezone": "Asia/Manila"
    },
    {
      "id": 112,
      "name": "Jaipur",
      "ascii_name": "Jaipur",
      "country": "India",
      "country_code": "IN",
      "latitude": 26.91962,
      "longitude": 75.78781,
      "elevation_m": 435,
      "population": 3046163,
      "timezone": "Asia/Kolkata"
    },
    {
      "id": 113,
      "name": "Incheon",
      "ascii_name": "Incheon",
      "country": "Korea, Republic of",
      "country_code": "KR",
      "latitude": 37.45646,
      "longitude": 126.70515,
      "elevation_m": 43,
      "population": 3039450,
      "timezone": "Asia/Seoul"
    },
    {
      "id": 114,
      "name": "Guiyang",
      "ascii_name": "Guiyang",
      "country": "China",
      "country_code": "CN",
      "latitude": 26.58333,
      "longitude": 106.71667,
      "elevation_m": 1087,
      "population": 3037159,
      "timezone": "Asia/Shanghai"
    },
    {
      "id": 115,
      "name": "Ürümqi",
      "ascii_name": "UEruemqi",
      "country": "China",
      "country_code": "CN",
      "latitude": 43.80096,
      "longitude": 87.60046,
      "elevation_m": 862,
      "population": 3029372,
      "timezone": "Asia/Urumqi"
    },
    {
      "id": 116,
      "name": "Caracas",
      "ascii_name": "Caracas",
      "country": "Venezuela, Bolivarian Rep. of",
      "country_code": "VE",
      "latitude": 10.48801,
      "longitude": -66.87919,
      "elevation_m": 887,
      "population": 3000000,
      "timezone": "America/Caracas"
    },
    {
      "id": 117,
      "name": "Lanzhou",
      "ascii_name": "Lanzhou",
      "country": "China",
      "country_code": "CN",
      "latitude": 36.05701,
      "longitude": 103.83987,
      "elevation_m": 1521,
      "population": 3000000,
      "timezone": "Asia/Shanghai"
    },
    {
      "id": 118,
      "name": "İzmir",
      "ascii_name": "Izmir",
      "country": "Turkey",
      "country_code": "TR",
      "latitude": 38.41273,
      "longitude": 27.13838,
      "elevation_m": 122,
      "population": 2938292,
      "timezone": "Europe/Istanbul"
    },
    {
      "id": 119,
      "name": "Huizhou",
      "ascii_name": "Huizhou",
      "country": "China",
      "country_code": "CN",
      "latitude": 23.11147,
      "longitude": 114.41523,
      "elevation_m": 25,
      "population": 2900113,
      "timezone": "Asia/Shanghai"
    },
    {
      "id": 120,
      "name": "Buenos Aires",
      "ascii_name": "Buenos Aires",
      "country": "Argentina",
      "country_code": "AR",
      "latitude": -34.61315,
      "longitude": -58.37723,
      "elevation_m": 31,
      "population": 2891082,
      "timezone": "America/Argentina/Buenos_Aires"
    },
    {
      "id": 121,
      "name": "Surabaya",
      "ascii_name": "Surabaya",
      "country": "Indonesia",
      "country_code": "ID",
      "latitude": -7.24917,
      "longitude": 112.75083,
      "elevation_m": 8,
      "population": 2874314,
      "timezone": "Asia/Jakarta"
    },
    {
      "id": 122,
      "name": "Haikou",
      "ascii_name": "Haikou",
      "country": "China",
      "country_code": "CN",
      "latitude": 20.03421,
      "longitude": 110.34651,
      "elevation_m": 9,
      "population": 2873358,
      "timezone": "Asia/Shanghai"
    },
    {
      "id": 123,
      "name": "Taichung",
      "ascii_name": "Taichung",
      "country": "Taiwan, China",
      "country_code": "TW",
      "latitude": 24.1469,
      "longitude": 120.6839,
      "elevation_m": 91,
      "population": 2850285,
      "timezone": "Asia/Taipei"
    },
    {
      "id": 124,
      "name": "Kanpur",
      "ascii_name": "Kanpur",
      "country": "India",
      "country_code": "IN",
      "latitude": 26.46523,
      "longitude": 80.34975,
      "elevation_m": 137,
      "population": 2823249,
      "timezone": "Asia/Kolkata"
    },
    {
      "id": 125,
      "name": "Kyiv",
      "ascii_name": "Kyiv",
      "country": "Ukraine",
      "country_code": "UA",
      "latitude": 50.45466,
      "longitude": 30.5238,
      "elevation_m": 187,
      "population": 2797553,
      "timezone": "Europe/Kyiv"
    },
    {
      "id": 126,
      "name": "Toronto",
      "ascii_name": "Toronto",
      "country": "Canada",
      "country_code": "CA",
      "latitude": 43.70643,
      "longitude": -79.39864,
      "elevation_m": 161,
      "population": 2794356,
      "timezone": "America/Toronto"
    },
    {
      "id": 127,
      "name": "Quito",
      "ascii_name": "Quito",
      "country": "Ecuador",
      "country_code": "EC",
      "latitude": -0.22985,
      "longitude": -78.52495,
      "elevation_m": 2854,
      "population": 2781641,
      "timezone": "America/Guayaquil"
    },
    {
      "id": 128,
      "name": "Brisbane",
      "ascii_name": "Brisbane",
      "country": "Australia",
      "country_code": "AU",
      "latitude": -27.46794,
      "longitude": 153.02809,
      "elevation_m": 27,
      "population": 2780063,
      "timezone": "Australia/Brisbane"
    },
    {
      "id": 129,
      "name": "Luanda",
      "ascii_name": "Luanda",
      "country": "Angola",
      "country_code": "AO",
      "latitude": -8.83682,
      "longitude": 13.23432,
      "elevation_m": 73,
      "population": 2776168,
      "timezone": "Africa/Luanda"
    },
    {
      "id": 130,
      "name": "Osaka",
      "ascii_name": "Osaka",
      "country": "Japan",
      "country_code": "JP",
      "latitude": 34.69379,
      "longitude": 135.50107,
      "elevation_m": 4,
      "population": 2753862,
      "timezone": "Asia/Tokyo"
    },
    {
      "id": 131,
      "name": "Linyi",
      "ascii_name": "Linyi",
      "country": "China",
      "country_code": "CN",
      "latitude": 35.06306,
      "longitude": 118.34278,
      "elevation_m": 69,
      "population": 2743843,
      "timezone": "Asia/Shanghai"
    },
    {
      "id": 132,
      "name": "Baoding",
      "ascii_name": "Baoding",
      "country": "China",
      "country_code": "CN",
      "latitude": 38.87288,
      "longitude": 115.46246,
      "elevation_m": 15,
      "population": 2739887,
      "timezone": "Asia/Shanghai"
    },
    {
      "id": 133,
      "name": "Kaohsiung",
      "ascii_name": "Kaohsiung",
      "country": "Taiwan, China",
      "country_code": "TW",
      "latitude": 22.61626,
      "longitude": 120.31333,
      "elevation_m": 9,
      "population": 2737660,
      "timezone": "Asia/Taipei"
    },
    {
      "id": 134,
      "name": "Brooklyn",
      "ascii_name": "Brooklyn",
      "country": "United States",
      "country_code": "US",
      "latitude": 40.6501,
      "longitude": -73.94958,
      "elevation_m": "15",
      "population": 2736074,
      "timezone": "America/New_York"
    },
    {
      "id": 135,
      "name": "Guayaquil",
      "ascii_name": "Guayaquil",
      "country": "Ecuador",
      "country_code": "EC",
      "latitude": -2.19616,
      "longitude": -79.88621,
      "elevation_m": 14,
      "population": 2723665,
      "timezone": "America/Guayaquil"
    },
    {
      "id": 136,
      "name": "Belo Horizonte",
      "ascii_name": "Belo Horizonte",
      "country": "Brazil",
      "country_code": "BR",
      "latitude": -19.92083,
      "longitude": -43.93778,
      "elevation_m": "888",
      "population": 2721564,
      "timezone": "America/Sao_Paulo"
    },
    {
      "id": 137,
      "name": "Salvador",
      "ascii_name": "Salvador",
      "country": "Brazil",
      "country_code": "BR",
      "latitude": -12.97563,
      "longitude": -38.49096,
      "elevation_m": 4,
      "population": 2711840,
      "timezone": "America/Bahia"
    },
    {
      "id": 138,
      "name": "Abuja",
      "ascii_name": "Abuja",
      "country": "Nigeria",
      "country_code": "NG",
      "latitude": 9.05785,
      "longitude": 7.49508,
      "elevation_m": 476,
      "population": 2690000,
      "timezone": "Africa/Lagos"
    },
    {
      "id": 139,
      "name": "Gazipur",
      "ascii_name": "Gazipur",
      "country": "Bangladesh",
      "country_code": "BD",
      "latitude": 23.99844,
      "longitude": 90.42234,
      "elevation_m": 12,
      "population": 2674697,
      "timezone": "Asia/Dhaka"
    },
    {
      "id": 140,
      "name": "Chicago",
      "ascii_name": "Chicago",
      "country": "United States",
      "country_code": "US",
      "latitude": 41.85003,
      "longitude": -87.65005,
      "elevation_m": "179",
      "population": 2664452,
      "timezone": "America/Chicago"
    },
    {
      "id": 141,
      "name": "Wenzhou",
      "ascii_name": "Wenzhou",
      "country": "China",
      "country_code": "CN",
      "latitude": 27.99942,
      "longitude": 120.66682,
      "elevation_m": 10,
      "population": 2650000,
      "timezone": "Asia/Shanghai"
    },
    {
      "id": 142,
      "name": "Dakar",
      "ascii_name": "Dakar",
      "country": "Senegal",
      "country_code": "SN",
      "latitude": 14.6937,
      "longitude": -17.44406,
      "elevation_m": 12,
      "population": 2646503,
      "timezone": "Africa/Dakar"
    },
    {
      "id": 143,
      "name": "Haiphong",
      "ascii_name": "Haiphong",
      "country": "Viet Nam",
      "country_code": "VN",
      "latitude": 20.86481,
      "longitude": 106.68345,
      "elevation_m": 12,
      "population": 2625200,
      "timezone": "Asia/Bangkok"
    },
    {
      "id": 144,
      "name": "Yunfu",
      "ascii_name": "Yunfu",
      "country": "China",
      "country_code": "CN",
      "latitude": 22.92787,
      "longitude": 112.03809,
      "elevation_m": 67,
      "population": 2612800,
      "timezone": "Asia/Shanghai"
    },
    {
      "id": 145,
      "name": "Navi Mumbai",
      "ascii_name": "Navi Mumbai",
      "country": "India",
      "country_code": "IN",
      "latitude": 19.03681,
      "longitude": 73.01582,
      "elevation_m": 14,
      "population": 2600000,
      "timezone": "Asia/Kolkata"
    },
    {
      "id": 146,
      "name": "Mogadishu",
      "ascii_name": "Mogadishu",
      "country": "Somalia",
      "country_code": "SO",
      "latitude": 2.03711,
      "longitude": 45.34375,
      "elevation_m": 12,
      "population": 2587183,
      "timezone": "Africa/Mogadishu"
    },
    {
      "id": 147,
      "name": "Bekasi",
      "ascii_name": "Bekasi",
      "country": "Indonesia",
      "country_code": "ID",
      "latitude": -6.2349,
      "longitude": 106.9896,
      "elevation_m": 18,
      "population": 2564940,
      "timezone": "Asia/Jakarta"
    },
    {
      "id": 148,
      "name": "Kumasi",
      "ascii_name": "Kumasi",
      "country": "Ghana",
      "country_code": "GH",
      "latitude": 6.68848,
      "longitude": -1.62443,
      "elevation_m": 270,
      "population": 2544530,
      "timezone": "Africa/Accra"
    },
    {
      "id": 149,
      "name": "Gujranwala",
      "ascii_name": "Gujranwala",
      "country": "Pakistan",
      "country_code": "PK",
      "latitude": 32.15567,
      "longitude": 74.18705,
      "elevation_m": 230,
      "population": 2511118,
      "timezone": "Asia/Karachi"
    },
    {
      "id": 150,
      "name": "Huai'an",
      "ascii_name": "Huai'an",
      "country": "China",
      "country_code": "CN",
      "latitude": 33.58861,
      "longitude": 119.01917,
      "elevation_m": 14,
      "population": 2494013,
      "timezone": "Asia/Shanghai"
    },
    {
      "id": 151,
      "name": "Lucknow",
      "ascii_name": "Lucknow",
      "country": "India",
      "country_code": "IN",
      "latitude": 26.83928,
      "longitude": 80.92313,
      "elevation_m": 126,
      "population": 2472011,
      "timezone": "Asia/Kolkata"
    },
    {
      "id": 152,
      "name": "Bandung",
      "ascii_name": "Bandung",
      "country": "Indonesia",
      "country_code": "ID",
      "latitude": -6.92222,
      "longitude": 107.60694,
      "elevation_m": 714,
      "population": 2444160,
      "timezone": "Asia/Jakarta"
    },
    {
      "id": 153,
      "name": "Medan",
      "ascii_name": "Medan",
      "country": "Indonesia",
      "country_code": "ID",
      "latitude": 3.58333,
      "longitude": 98.66667,
      "elevation_m": 26,
      "population": 2435252,
      "timezone": "Asia/Jakarta"
    },
    {
      "id": 154,
      "name": "Ouagadougou",
      "ascii_name": "Ouagadougou",
      "country": "Burkina Faso",
      "country_code": "BF",
      "latitude": 12.36566,
      "longitude": -1.53388,
      "elevation_m": 299,
      "population": 2415266,
      "timezone": "Africa/Ouagadougou"
    },
    {
      "id": 155,
      "name": "Nagpur",
      "ascii_name": "Nagpur",
      "country": "India",
      "country_code": "IN",
      "latitude": 21.14631,
      "longitude": 79.08491,
      "elevation_m": 319,
      "population": 2405665,
      "timezone": "Asia/Kolkata"
    },
    {
      "id": 156,
      "name": "Fortaleza",
      "ascii_name": "Fortaleza",
      "country": "Brazil",
      "country_code": "BR",
      "latitude": -3.71722,
      "longitude": -38.54306,
      "elevation_m": 18,
      "population": 2400000,
      "timezone": "America/Fortaleza"
    },
    {
      "id": 157,
      "name": "Cali",
      "ascii_name": "Cali",
      "country": "Colombia",
      "country_code": "CO",
      "latitude": 3.43054,
      "longitude": -76.5199,
      "elevation_m": 758,
      "population": 2392877,
      "timezone": "America/Bogota"
    },
    {
      "id": 158,
      "name": "Daegu",
      "ascii_name": "Daegu",
      "country": "Korea, Republic of",
      "country_code": "KR",
      "latitude": 35.87028,
      "longitude": 128.59111,
      "elevation_m": 45,
      "population": 2365523,
      "timezone": "Asia/Seoul"
    },
    {
      "id": 159,
      "name": "Algiers",
      "ascii_name": "Algiers",
      "country": "Algeria",
      "country_code": "DZ",
      "latitude": 36.73225,
      "longitude": 3.08746,
      "elevation_m": 113,
      "population": 2364230,
      "timezone": "Africa/Algiers"
    },
    {
      "id": 160,
      "name": "Nanchang",
      "ascii_name": "Nanchang",
      "country": "China",
      "country_code": "CN",
      "latitude": 28.68396,
      "longitude": 115.85306,
      "elevation_m": 20,
      "population": 2357839,
      "timezone": "Asia/Shanghai"
    },
    {
      "id": 161,
      "name": "Hohhot",
      "ascii_name": "Hohhot",
      "country": "China",
      "country_code": "CN",
      "latitude": 40.81056,
      "longitude": 111.65222,
      "elevation_m": 1051,
      "population": 2350000,
      "timezone": "Asia/Shanghai"
    },
    {
      "id": 162,
      "name": "Nagoya",
      "ascii_name": "Nagoya",
      "country": "Japan",
      "country_code": "JP",
      "latitude": 35.18147,
      "longitude": 136.90641,
      "elevation_m": 23,
      "population": 2332176,
      "timezone": "Asia/Tokyo"
    },
    {
      "id": 163,
      "name": "Rome",
      "ascii_name": "Rome",
      "country": "Italy",
      "country_code": "IT",
      "latitude": 41.89193,
      "longitude": 12.51133,
      "elevation_m": "20",
      "population": 2318895,
      "timezone": "Europe/Rome"
    },
    {
      "id": 164,
      "name": "Queens",
      "ascii_name": "Queens",
      "country": "United States",
      "country_code": "US",
      "latitude": 40.68149,
      "longitude": -73.83652,
      "elevation_m": "12",
      "population": 2316841,
      "timezone": "America/New_York"
    },
    {
      "id": 165,
      "name": "Houston",
      "ascii_name": "Houston",
      "country": "United States",
      "country_code": "US",
      "latitude": 29.76328,
      "longitude": -95.36327,
      "elevation_m": "12",
      "population": 2314157,
      "timezone": "America/Chicago"
    },
    {
      "id": 166,
      "name": "Perth",
      "ascii_name": "Perth",
      "country": "Australia",
      "country_code": "AU",
      "latitude": -31.95224,
      "longitude": 115.8614,
      "elevation_m": 34,
      "population": 2309338,
      "timezone": "Australia/Perth"
    },
    {
      "id": 167,
      "name": "Mashhad",
      "ascii_name": "Mashhad",
      "country": "Iran, Islamic Rep. of",
      "country_code": "IR",
      "latitude": 36.29807,
      "longitude": 59.60567,
      "elevation_m": 980,
      "population": 2307177,
      "timezone": "Asia/Tehran"
    },
    {
      "id": 168,
      "name": "Shaoxing",
      "ascii_name": "Shaoxing",
      "country": "China",
      "country_code": "CN",
      "latitude": 30.00237,
      "longitude": 120.57864,
      "elevation_m": 21,
      "population": 2300000,
      "timezone": "Asia/Shanghai"
    },
    {
      "id": 169,
      "name": "Nantong",
      "ascii_name": "Nantong",
      "country": "China",
      "country_code": "CN",
      "latitude": 32.03028,
      "longitude": 120.87472,
      "elevation_m": 6,
      "population": 2273326,
      "timezone": "Asia/Shanghai"
    },
    {
      "id": 170,
      "name": "Kowloon",
      "ascii_name": "Kowloon",
      "country": "Hong Kong, China",
      "country_code": "HK",
      "latitude": 22.31667,
      "longitude": 114.18333,
      "elevation_m": 92,
      "population": 2232339,
      "timezone": "Asia/Hong_Kong"
    },
    {
      "id": 171,
      "name": "Yantai",
      "ascii_name": "Yantai",
      "country": "China",
      "country_code": "CN",
      "latitude": 37.47649,
      "longitude": 121.44081,
      "elevation_m": 22,
      "population": 2227733,
      "timezone": "Asia/Shanghai"
    },
    {
      "id": 172,
      "name": "Lubumbashi",
      "ascii_name": "Lubumbashi",
      "country": "Congo, Democratic Republic of the",
      "country_code": "CD",
      "latitude": -11.66089,
      "longitude": 27.47938,
      "elevation_m": 1260,
      "population": 2221925,
      "timezone": "Africa/Lubumbashi"
    },
    {
      "id": 173,
      "name": "Manaus",
      "ascii_name": "Manaus",
      "country": "Brazil",
      "country_code": "BR",
      "latitude": -3.10194,
      "longitude": -60.025,
      "elevation_m": 20,
      "population": 2219580,
      "timezone": "America/Manaus"
    },
    {
      "id": 174,
      "name": "Lusaka",
      "ascii_name": "Lusaka",
      "country": "Zambia",
      "country_code": "ZM",
      "latitude": -15.40669,
      "longitude": 28.28713,
      "elevation_m": 1277,
      "population": 2212301,
      "timezone": "Africa/Lusaka"
    },
    {
      "id": 175,
      "name": "Brasília",
      "ascii_name": "Brasilia",
      "country": "Brazil",
      "country_code": "BR",
      "latitude": -15.77972,
      "longitude": -47.92972,
      "elevation_m": 1136,
      "population": 2207718,
      "timezone": "America/Sao_Paulo"
    },
    {
      "id": 176,
      "name": "Zhuhai",
      "ascii_name": "Zhuhai",
      "country": "China",
      "country_code": "CN",
      "latitude": 22.27694,
      "longitude": 113.56778,
      "elevation_m": 35,
      "population": 2207090,
      "timezone": "Asia/Shanghai"
    },
    {
      "id": 177,
      "name": "Santo Domingo",
      "ascii_name": "Santo Domingo",
      "country": "Dominican Republic",
      "country_code": "DO",
      "latitude": 18.47186,
      "longitude": -69.89232,
      "elevation_m": 24,
      "population": 2201941,
      "timezone": "America/Santo_Domingo"
    },
    {
      "id": 178,
      "name": "Lomé",
      "ascii_name": "Lome",
      "country": "Togo",
      "country_code": "TG",
      "latitude": 6.12874,
      "longitude": 1.22154,
      "elevation_m": 13,
      "population": 2188376,
      "timezone": "Africa/Lome"
    },
    {
      "id": 179,
      "name": "Multan",
      "ascii_name": "Multan",
      "country": "Pakistan",
      "country_code": "PK",
      "latitude": 30.19679,
      "longitude": 71.47824,
      "elevation_m": 126,
      "population": 2169915,
      "timezone": "Asia/Karachi"
    },
    {
      "id": 180,
      "name": "Havana",
      "ascii_name": "Havana",
      "country": "Cuba",
      "country_code": "CU",
      "latitude": 23.13302,
      "longitude": -82.38304,
      "elevation_m": 41,
      "population": 2163824,
      "timezone": "America/Havana"
    },
    {
      "id": 181,
      "name": "Baotou",
      "ascii_name": "Baotou",
      "country": "China",
      "country_code": "CN",
      "latitude": 40.6516,
      "longitude": 109.84389,
      "elevation_m": 1064,
      "population": 2150000,
      "timezone": "Asia/Shanghai"
    },
    {
      "id": 182,
      "name": "Depok",
      "ascii_name": "Depok",
      "country": "Indonesia",
      "country_code": "ID",
      "latitude": -6.4,
      "longitude": 106.81861,
      "elevation_m": 92,
      "population": 2145400,
      "timezone": "Asia/Jakarta"
    },
    {
      "id": 183,
      "name": "Paris",
      "ascii_name": "Paris",
      "country": "France",
      "country_code": "FR",
      "latitude": 48.85341,
      "longitude": 2.3488,
      "elevation_m": 42,
      "population": 2138551,
      "timezone": "Europe/Paris"
    },
    {
      "id": 184,
      "name": "Coimbatore",
      "ascii_name": "Coimbatore",
      "country": "India",
      "country_code": "IN",
      "latitude": 11.00555,
      "longitude": 76.96612,
      "elevation_m": "411",
      "population": 2136916,
      "timezone": "Asia/Kolkata"
    },
    {
      "id": 185,
      "name": "Gaziantep",
      "ascii_name": "Gaziantep",
      "country": "Turkey",
      "country_code": "TR",
      "latitude": 37.05944,
      "longitude": 37.3825,
      "elevation_m": 842,
      "population": 2130432,
      "timezone": "Europe/Istanbul"
    },
    {
      "id": 186,
      "name": "Qingyang",
      "ascii_name": "Qingyang",
      "country": "China",
      "country_code": "CN",
      "latitude": 35.70976,
      "longitude": 107.64455,
      "elevation_m": 1427,
      "population": 2125400,
      "timezone": "Asia/Shanghai"
    },
    {
      "id": 187,
      "name": "Port Harcourt",
      "ascii_name": "Port Harcourt",
      "country": "Nigeria",
      "country_code": "NG",
      "latitude": 4.77742,
      "longitude": 7.0134,
      "elevation_m": 16,
      "population": 2120000,
      "timezone": "Africa/Lagos"
    },
    {
      "id": 188,
      "name": "Pretoria",
      "ascii_name": "Pretoria",
      "country": "South Africa",
      "country_code": "ZA",
      "latitude": -25.74486,
      "longitude": 28.18783,
      "elevation_m": 1332,
      "population": 2112693,
      "timezone": "Africa/Johannesburg"
    },
    {
      "id": 189,
      "name": "Córdoba",
      "ascii_name": "Cordoba",
      "country": "Argentina",
      "country_code": "AR",
      "latitude": -31.40648,
      "longitude": -64.18853,
      "elevation_m": 378,
      "population": 2106734,
      "timezone": "America/Argentina/Cordoba"
    },
    {
      "id": 190,
      "name": "Mbuji-Mayi",
      "ascii_name": "Mbuji-Mayi",
      "country": "Congo, Democratic Republic of the",
      "country_code": "CD",
      "latitude": -6.13603,
      "longitude": 23.58979,
      "elevation_m": 621,
      "population": 2101332,
      "timezone": "Africa/Lubumbashi"
    },
    {
      "id": 191,
      "name": "Aleppo",
      "ascii_name": "Aleppo",
      "country": "Syrian Arab Republic",
      "country_code": "SY",
      "latitude": 36.20124,
      "longitude": 37.16117,
      "elevation_m": 401,
      "population": 2098210,
      "timezone": "Asia/Damascus"
    },
    {
      "id": 192,
      "name": "Kunshan",
      "ascii_name": "Kunshan",
      "country": "China",
      "country_code": "CN",
      "latitude": 31.37762,
      "longitude": 120.95431,
      "elevation_m": 10,
      "population": 2092496,
      "timezone": "Asia/Shanghai"
    },
    {
      "id": 193,
      "name": "Al Mawşil al Jadīdah",
      "ascii_name": "Al Mawsil al Jadidah",
      "country": "Iraq",
      "country_code": "IQ",
      "latitude": 36.33271,
      "longitude": 43.10555,
      "elevation_m": 239,
      "population": 2065597,
      "timezone": "Asia/Baghdad"
    },
    {
      "id": 194,
      "name": "Weifang",
      "ascii_name": "Weifang",
      "country": "China",
      "country_code": "CN",
      "latitude": 36.71,
      "longitude": 119.10194,
      "elevation_m": 30,
      "population": 2044028,
      "timezone": "Asia/Shanghai"
    },
    {
      "id": 195,
      "name": "Zunyi",
      "ascii_name": "Zunyi",
      "country": "China",
      "country_code": "CN",
      "latitude": 27.68667,
      "longitude": 106.90722,
      "elevation_m": 867,
      "population": 2037775,
      "timezone": "Asia/Shanghai"
    },
    {
      "id": 196,
      "name": "Al Başrah al Qadīmah",
      "ascii_name": "Al Basrah al Qadimah",
      "country": "Iraq",
      "country_code": "IQ",
      "latitude": 30.50316,
      "longitude": 47.81507,
      "elevation_m": 7,
      "population": 2015483,
      "timezone": "Asia/Baghdad"
    },
    {
      "id": 197,
      "name": "La Paz",
      "ascii_name": "La Paz",
      "country": "Bolivia",
      "country_code": "BO",
      "latitude": -16.5,
      "longitude": -68.15,
      "elevation_m": 3782,
      "population": 2004652,
      "timezone": "America/La_Paz"
    },
    {
      "id": 198,
      "name": "Lianyungang",
      "ascii_name": "Lianyungang",
      "country": "China",
      "country_code": "CN",
      "latitude": 34.59845,
      "longitude": 119.21556,
      "elevation_m": 1,
      "population": 2001009,
      "timezone": "Asia/Shanghai"
    },
    {
      "id": 199,
      "name": "Medellín",
      "ascii_name": "Medellin",
      "country": "Colombia",
      "country_code": "CO",
      "latitude": 6.245,
      "longitude": -75.57151,
      "elevation_m": "1405",
      "population": 1999979,
      "timezone": "America/Bogota"
    },
    {
      "id": 200,
      "name": "Indore",
      "ascii_name": "Indore",
      "country": "India",
      "country_code": "IN",
      "latitude": 22.71792,
      "longitude": 75.8333,
      "elevation_m": 550,
      "population": 1994397,
      "timezone": "Asia/Kolkata"
    },
    {
      "id": 201,
      "name": "Brazzaville",
      "ascii_name": "Brazzaville",
      "country": "Congo",
      "country_code": "CG",
      "latitude": -4.26613,
      "longitude": 15.28318,
      "elevation_m": 284,
      "population": 1982000,
      "timezone": "Africa/Brazzaville"
    },
    {
      "id": 202,
      "name": "Tashkent",
      "ascii_name": "Tashkent",
      "country": "Uzbekistan",
      "country_code": "UZ",
      "latitude": 41.26465,
      "longitude": 69.21627,
      "elevation_m": 424,
      "population": 1978028,
      "timezone": "Asia/Tashkent"
    },
    {
      "id": 203,
      "name": "Ganzhou",
      "ascii_name": "Ganzhou",
      "country": "China",
      "country_code": "CN",
      "latitude": 25.84664,
      "longitude": 114.9326,
      "elevation_m": 117,
      "population": 1977253,
      "timezone": "Asia/Shanghai"
    },
    {
      "id": 204,
      "name": "Almaty",
      "ascii_name": "Almaty",
      "country": "Kazakhstan",
      "country_code": "KZ",
      "latitude": 43.25249,
      "longitude": 76.9115,
      "elevation_m": 783,
      "population": 1977011,
      "timezone": "Asia/Almaty"
    },
    {
      "id": 205,
      "name": "Khartoum",
      "ascii_name": "Khartoum",
      "country": "Sudan, The Republic of",
      "country_code": "SD",
      "latitude": 15.55177,
      "longitude": 32.53241,
      "elevation_m": 381,
      "population": 1974647,
      "timezone": "Africa/Khartoum"
    },
    {
      "id": 206,
      "name": "Sapporo",
      "ascii_name": "Sapporo",
      "country": "Japan",
      "country_code": "JP",
      "latitude": 43.06667,
      "longitude": 141.35,
      "elevation_m": 26,
      "population": 1973832,
      "timezone": "Asia/Tokyo"
    },
    {
      "id": 207,
      "name": "Accra",
      "ascii_name": "Accra",
      "country": "Ghana",
      "country_code": "GH",
      "latitude": 5.55602,
      "longitude": -0.1969,
      "elevation_m": 33,
      "population": 1963264,
      "timezone": "Africa/Accra"
    },
    {
      "id": 208,
      "name": "Curitiba",
      "ascii_name": "Curitiba",
      "country": "Brazil",
      "country_code": "BR",
      "latitude": -25.42778,
      "longitude": -49.27306,
      "elevation_m": 924,
      "population": 1948626,
      "timezone": "America/Sao_Paulo"
    },
    {
      "id": 209,
      "name": "Ordos",
      "ascii_name": "Ordos",
      "country": "China",
      "country_code": "CN",
      "latitude": 39.6086,
      "longitude": 109.78157,
      "elevation_m": "2149",
      "population": 1940653,
      "timezone": "Asia/Shanghai"
    },
    {
      "id": 210,
      "name": "Sanaa",
      "ascii_name": "Sanaa",
      "country": "Yemen",
      "country_code": "YE",
      "latitude": 15.35452,
      "longitude": 44.20646,
      "elevation_m": 2253,
      "population": 1937451,
      "timezone": "Asia/Aden"
    },
    {
      "id": 211,
      "name": "Conakry",
      "ascii_name": "Conakry",
      "country": "Guinea",
      "country_code": "GN",
      "latitude": 9.53795,
      "longitude": -13.67729,
      "elevation_m": 13,
      "population": 1928389,
      "timezone": "Africa/Conakry"
    },
    {
      "id": 212,
      "name": "Tijuana",
      "ascii_name": "Tijuana",
      "country": "Mexico",
      "country_code": "MX",
      "latitude": 32.5027,
      "longitude": -117.00371,
      "elevation_m": 97,
      "population": 1922523,
      "timezone": "America/Tijuana"
    },
    {
      "id": 213,
      "name": "Hyderabad",
      "ascii_name": "Hyderabad",
      "country": "Pakistan",
      "country_code": "PK",
      "latitude": 25.39689,
      "longitude": 68.37718,
      "elevation_m": 14,
      "population": 1921275,
      "timezone": "Asia/Karachi"
    },
    {
      "id": 214,
      "name": "Beirut",
      "ascii_name": "Beirut",
      "country": "Lebanon",
      "country_code": "LB",
      "latitude": 33.89332,
      "longitude": 35.50157,
      "elevation_m": 40,
      "population": 1916100,
      "timezone": "Asia/Beirut"
    },
    {
      "id": 215,
      "name": "Tangerang",
      "ascii_name": "Tangerang",
      "country": "Indonesia",
      "country_code": "ID",
      "latitude": -6.17806,
      "longitude": 106.63,
      "elevation_m": 18,
      "population": 1912679,
      "timezone": "Asia/Jakarta"
    },
    {
      "id": 216,
      "name": "Jieyang",
      "ascii_name": "Jieyang",
      "country": "China",
      "country_code": "CN",
      "latitude": 23.5418,
      "longitude": 116.36581,
      "elevation_m": 7,
      "population": 1899394,
      "timezone": "Asia/Shanghai"
    },
    {
      "id": 217,
      "name": "Jilin",
      "ascii_name": "Jilin",
      "country": "China",
      "country_code": "CN",
      "latitude": 43.84652,
      "longitude": 126.5608,
      "elevation_m": 188,
      "population": 1895865,
      "timezone": "Asia/Shanghai"
    },
    {
      "id": 218,
      "name": "Bucharest",
      "ascii_name": "Bucharest",
      "country": "Romania",
      "country_code": "RO",
      "latitude": 44.43225,
      "longitude": 26.10626,
      "elevation_m": 83,
      "population": 1877155,
      "timezone": "Europe/Bucharest"
    },
    {
      "id": 219,
      "name": "Camayenne",
      "ascii_name": "Camayenne",
      "country": "Guinea",
      "country_code": "GN",
      "latitude": 9.535,
      "longitude": -13.68778,
      "elevation_m": 6,
      "population": 1871242,
      "timezone": "Africa/Conakry"
    },
    {
      "id": 220,
      "name": "Kakamega",
      "ascii_name": "Kakamega",
      "country": "Kenya",
      "country_code": "KE",
      "latitude": 0.28422,
      "longitude": 34.75229,
      "elevation_m": 1563,
      "population": 1867579,
      "timezone": "Africa/Nairobi"
    },
    {
      "id": 221,
      "name": "Nanchong",
      "ascii_name": "Nanchong",
      "country": "China",
      "country_code": "CN",
      "latitude": 30.79508,
      "longitude": 106.08473,
      "elevation_m": 287,
      "population": 1858875,
      "timezone": "Asia/Shanghai"
    },
    {
      "id": 222,
      "name": "Tainan",
      "ascii_name": "Tainan",
      "country": "Taiwan, China",
      "country_code": "TW",
      "latitude": 22.99083,
      "longitude": 120.21333,
      "elevation_m": 26,
      "population": 1856642,
      "timezone": "Asia/Taipei"
    },
    {
      "id": 223,
      "name": "Datong",
      "ascii_name": "Datong",
      "country": "China",
      "country_code": "CN",
      "latitude": 40.09361,
      "longitude": 113.29139,
      "elevation_m": 1054,
      "population": 1850000,
      "timezone": "Asia/Shanghai"
    },
    {
      "id": 224,
      "name": "Kaduna",
      "ascii_name": "Kaduna",
      "country": "Nigeria",
      "country_code": "NG",
      "latitude": 10.52641,
      "longitude": 7.43879,
      "elevation_m": 626,
      "population": 1850000,
      "timezone": "Africa/Lagos"
    },
    {
      "id": 225,
      "name": "Omdurman",
      "ascii_name": "Omdurman",
      "country": "Sudan, The Republic of",
      "country_code": "SD",
      "latitude": 15.64453,
      "longitude": 32.47773,
      "elevation_m": 391,
      "population": 1849659,
      "timezone": "Africa/Khartoum"
    },
    {
      "id": 226,
      "name": "Davao",
      "ascii_name": "Davao",
      "country": "Philippines",
      "country_code": "PH",
      "latitude": 7.07306,
      "longitude": 125.61278,
      "elevation_m": 13,
      "population": 1848947,
      "timezone": "Asia/Manila"
    },
    {
      "id": 227,
      "name": "Hamburg",
      "ascii_name": "Hamburg",
      "country": "Germany",
      "country_code": "DE",
      "latitude": 53.55073,
      "longitude": 9.99302,
      "elevation_m": 9,
      "population": 1845229,
      "timezone": "Europe/Berlin"
    },
    {
      "id": 228,
      "name": "Thāne",
      "ascii_name": "Thane",
      "country": "India",
      "country_code": "IN",
      "latitude": 19.19704,
      "longitude": 72.96355,
      "elevation_m": 23,
      "population": 1841488,
      "timezone": "Asia/Kolkata"
    },
    {
      "id": 229,
      "name": "Iztapalapa",
      "ascii_name": "Iztapalapa",
      "country": "Mexico",
      "country_code": "MX",
      "latitude": 19.35529,
      "longitude": -99.06224,
      "elevation_m": 2238,
      "population": 1835486,
      "timezone": "America/Mexico_City"
    },
    {
      "id": 230,
      "name": "Santa Cruz de la Sierra",
      "ascii_name": "Santa Cruz de la Sierra",
      "country": "Bolivia",
      "country_code": "BO",
      "latitude": -17.78629,
      "longitude": -63.18117,
      "elevation_m": 433,
      "population": 1831434,
      "timezone": "America/La_Paz"
    },
    {
      "id": 231,
      "name": "Vadodara",
      "ascii_name": "Vadodara",
      "country": "India",
      "country_code": "IN",
      "latitude": 22.29941,
      "longitude": 73.20812,
      "elevation_m": 46,
      "population": 1822221,
      "timezone": "Asia/Kolkata"
    },
    {
      "id": 232,
      "name": "Adana",
      "ascii_name": "Adana",
      "country": "Turkey",
      "country_code": "TR",
      "latitude": 36.98615,
      "longitude": 35.32531,
      "elevation_m": 30,
      "population": 1816750,
      "timezone": "Europe/Istanbul"
    },
    {
      "id": 233,
      "name": "Nanyang",
      "ascii_name": "Nanyang",
      "country": "China",
      "country_code": "CN",
      "latitude": 32.99472,
      "longitude": 112.53278,
      "elevation_m": 131,
      "population": 1811812,
      "timezone": "Asia/Shanghai"
    },
    {
      "id": 234,
      "name": "Abu Dhabi",
      "ascii_name": "Abu Dhabi",
      "country": "United Arab Emirates",
      "country_code": "AE",
      "latitude": 24.45118,
      "longitude": 54.39696,
      "elevation_m": 6,
      "population": 1807000,
      "timezone": "Asia/Dubai"
    },
    {
      "id": 235,
      "name": "Sharjah",
      "ascii_name": "Sharjah",
      "country": "United Arab Emirates",
      "country_code": "AE",
      "latitude": 25.3342,
      "longitude": 55.41221,
      "elevation_m": 15,
      "population": 1800000,
      "timezone": "Asia/Dubai"
    },
    {
      "id": 236,
      "name": "Bhopal",
      "ascii_name": "Bhopal",
      "country": "India",
      "country_code": "IN",
      "latitude": 23.25469,
      "longitude": 77.40289,
      "elevation_m": 523,
      "population": 1798218,
      "timezone": "Asia/Kolkata"
    },
    {
      "id": 237,
      "name": "Jiangmen",
      "ascii_name": "Jiangmen",
      "country": "China",
      "country_code": "CN",
      "latitude": 22.58333,
      "longitude": 113.08333,
      "elevation_m": 11,
      "population": 1795459,
      "timezone": "Asia/Shanghai"
    },
    {
      "id": 238,
      "name": "Diyarbakır",
      "ascii_name": "Diyarbakir",
      "country": "Turkey",
      "country_code": "TR",
      "latitude": 37.91363,
      "longitude": 40.21721,
      "elevation_m": 674,
      "population": 1791373,
      "timezone": "Europe/Istanbul"
    },
    {
      "id": 239,
      "name": "Benin City",
      "ascii_name": "Benin City",
      "country": "Nigeria",
      "country_code": "NG",
      "latitude": 6.33815,
      "longitude": 5.62575,
      "elevation_m": 88,
      "population": 1782000,
      "timezone": "Africa/Lagos"
    },
    {
      "id": 240,
      "name": "Jiangyin",
      "ascii_name": "Jiangyin",
      "country": "China",
      "country_code": "CN",
      "latitude": 31.91102,
      "longitude": 120.26302,
      "elevation_m": 7,
      "population": 1779515,
      "timezone": "Asia/Shanghai"
    },
    {
      "id": 241,
      "name": "Fuyang",
      "ascii_name": "Fuyang",
      "country": "China",
      "country_code": "CN",
      "latitude": 32.9,
      "longitude": 115.81667,
      "elevation_m": 31,
      "population": 1768947,
      "timezone": "Asia/Shanghai"
    },
    {
      "id": 242,
      "name": "Montréal",
      "ascii_name": "Montreal",
      "country": "Canada",
      "country_code": "CA",
      "latitude": 45.50884,
      "longitude": -73.58781,
      "elevation_m": 216,
      "population": 1762949,
      "timezone": "America/Toronto"
    },
    {
      "id": 243,
      "name": "Bayan Nur",
      "ascii_name": "Bayan Nur",
      "country": "China",
      "country_code": "CN",
      "latitude": 40.74143,
      "longitude": 107.38599,
      "elevation_m": "1050",
      "population": 1760000,
      "timezone": "Asia/Shanghai"
    },
    {
      "id": 244,
      "name": "Maracaibo",
      "ascii_name": "Maracaibo",
      "country": "Venezuela, Bolivarian Rep. of",
      "country_code": "VE",
      "latitude": 10.64232,
      "longitude": -71.61089,
      "elevation_m": -9999,
      "population": 1752602,
      "timezone": "America/Caracas"
    },
    {
      "id": 245,
      "name": "Chaozhou",
      "ascii_name": "Chaozhou",
      "country": "China",
      "country_code": "CN",
      "latitude": 23.65396,
      "longitude": 116.62262,
      "elevation_m": 23,
      "population": 1750945,
      "timezone": "Asia/Shanghai"
    },
    {
      "id": 246,
      "name": "Minsk",
      "ascii_name": "Minsk",
      "country": "Belarus",
      "country_code": "BY",
      "latitude": 53.90019,
      "longitude": 27.56653,
      "elevation_m": 222,
      "population": 1742124,
      "timezone": "Europe/Minsk"
    },
    {
      "id": 247,
      "name": "Budapest",
      "ascii_name": "Budapest",
      "country": "Hungary",
      "country_code": "HU",
      "latitude": 47.49835,
      "longitude": 19.04045,
      "elevation_m": 104,
      "population": 1741041,
      "timezone": "Europe/Budapest"
    },
    {
      "id": 248,
      "name": "Qingyuan",
      "ascii_name": "Qingyuan",
      "country": "China",
      "country_code": "CN",
      "latitude": 23.7,
      "longitude": 113.03333,
      "elevation_m": 11,
      "population": 1738424,
      "timezone": "Asia/Shanghai"
    },
    {
      "id": 249,
      "name": "Tai’an",
      "ascii_name": "Tai'an",
      "country": "China",
      "country_code": "CN",
      "latitude": 36.18528,
      "longitude": 117.12,
      "elevation_m": 143,
      "population": 1735425,
      "timezone": "Asia/Shanghai"
    },
    {
      "id": 250,
      "name": "Rasapūdipalem",
      "ascii_name": "Rasapudipalem",
      "country": "India",
      "country_code": "IN",
      "latitude": 17.73308,
      "longitude": 83.31622,
      "elevation_m": 45,
      "population": 1728128,
      "timezone": "Asia/Kolkata"
    },
    {
      "id": 251,
      "name": "Pimpri-Chinchwad",
      "ascii_name": "Pimpri-Chinchwad",
      "country": "India",
      "country_code": "IN",
      "latitude": 18.61867,
      "longitude": 73.80375,
      "elevation_m": 568,
      "population": 1727692,
      "timezone": "Asia/Kolkata"
    },
    {
      "id": 252,
      "name": "Caloocan",
      "ascii_name": "Caloocan",
      "country": "Philippines",
      "country_code": "PH",
      "latitude": 14.64953,
      "longitude": 120.96788,
      "elevation_m": 6,
      "population": 1712945,
      "timezone": "Asia/Manila"
    },
    {
      "id": 253,
      "name": "Warsaw",
      "ascii_name": "Warsaw",
      "country": "Poland",
      "country_code": "PL",
      "latitude": 52.22977,
      "longitude": 21.01178,
      "elevation_m": 113,
      "population": 1702139,
      "timezone": "Europe/Warsaw"
    },
    {
      "id": 254,
      "name": "Soweto",
      "ascii_name": "Soweto",
      "country": "South Africa",
      "country_code": "ZA",
      "latitude": -26.26781,
      "longitude": 27.85849,
      "elevation_m": 1632,
      "population": 1695047,
      "timezone": "Africa/Johannesburg"
    },
    {
      "id": 255,
      "name": "Puebla",
      "ascii_name": "Puebla",
      "country": "Mexico",
      "country_code": "MX",
      "latitude": 19.04778,
      "longitude": -98.20723,
      "elevation_m": 2166,
      "population": 1692181,
      "timezone": "America/Mexico_City"
    },
    {
      "id": 256,
      "name": "Vienna",
      "ascii_name": "Vienna",
      "country": "Austria",
      "country_code": "AT",
      "latitude": 48.20849,
      "longitude": 16.37208,
      "elevation_m": "171",
      "population": 1691468,
      "timezone": "Europe/Vienna"
    },
    {
      "id": 257,
      "name": "Barcelona",
      "ascii_name": "Barcelona",
      "country": "Spain",
      "country_code": "ES",
      "latitude": 41.38879,
      "longitude": 2.15899,
      "elevation_m": "15",
      "population": 1686208,
      "timezone": "Europe/Madrid"
    },
    {
      "id": 258,
      "name": "Patna",
      "ascii_name": "Patna",
      "country": "India",
      "country_code": "IN",
      "latitude": 25.59408,
      "longitude": 85.13563,
      "elevation_m": 53,
      "population": 1684297,
      "timezone": "Asia/Kolkata"
    },
    {
      "id": 259,
      "name": "Mosul",
      "ascii_name": "Mosul",
      "country": "Iraq",
      "country_code": "IQ",
      "latitude": 36.335,
      "longitude": 43.11889,
      "elevation_m": 228,
      "population": 1683000,
      "timezone": "Asia/Baghdad"
    },
    {
      "id": 260,
      "name": "Kallakurichi",
      "ascii_name": "Kallakurichi",
      "country": "India",
      "country_code": "IN",
      "latitude": 11.73379,
      "longitude": 78.95925,
      "elevation_m": 124,
      "population": 1682687,
      "timezone": "Asia/Kolkata"
    },
    {
      "id": 261,
      "name": "Kampala",
      "ascii_name": "Kampala",
      "country": "Uganda",
      "country_code": "UG",
      "latitude": 0.31628,
      "longitude": 32.58219,
      "elevation_m": 1223,
      "population": 1680600,
      "timezone": "Africa/Kampala"
    },
    {
      "id": 262,
      "name": "Xining",
      "ascii_name": "Xining",
      "country": "China",
      "country_code": "CN",
      "latitude": 36.62554,
      "longitude": 101.75739,
      "elevation_m": 2275,
      "population": 1677177,
      "timezone": "Asia/Shanghai"
    },
    {
      "id": 263,
      "name": "Changshu",
      "ascii_name": "Changshu",
      "country": "China",
      "country_code": "CN",
      "latitude": 31.64615,
      "longitude": 120.74221,
      "elevation_m": 9,
      "population": 1677050,
      "timezone": "Asia/Shanghai"
    },
    {
      "id": 264,
      "name": "Palembang",
      "ascii_name": "Palembang",
      "country": "Indonesia",
      "country_code": "ID",
      "latitude": -2.91673,
      "longitude": 104.7458,
      "elevation_m": 5,
      "population": 1668848,
      "timezone": "Asia/Jakarta"
    },
    {
      "id": 265,
      "name": "Huainan",
      "ascii_name": "Huainan",
      "country": "China",
      "country_code": "CN",
      "latitude": 32.62639,
      "longitude": 116.99694,
      "elevation_m": 47,
      "population": 1666826,
      "timezone": "Asia/Shanghai"
    },
    {
      "id": 266,
      "name": "Rabat",
      "ascii_name": "Rabat",
      "country": "Morocco",
      "country_code": "MA",
      "latitude": 34.01325,
      "longitude": -6.83255,
      "elevation_m": 46,
      "population": 1655753,
      "timezone": "Africa/Casablanca"
    },
    {
      "id": 267,
      "name": "Semarang",
      "ascii_name": "Semarang",
      "country": "Indonesia",
      "country_code": "ID",
      "latitude": -6.99306,
      "longitude": 110.42083,
      "elevation_m": 18,
      "population": 1653524,
      "timezone": "Asia/Jakarta"
    },
    {
      "id": 268,
      "name": "Recife",
      "ascii_name": "Recife",
      "country": "Brazil",
      "country_code": "BR",
      "latitude": -8.05389,
      "longitude": -34.88111,
      "elevation_m": 8,
      "population": 1653461,
      "timezone": "America/Recife"
    },
    {
      "id": 269,
      "name": "Phoenix",
      "ascii_name": "Phoenix",
      "country": "United States",
      "country_code": "US",
      "latitude": 33.44838,
      "longitude": -112.07404,
      "elevation_m": "331",
      "population": 1650070,
      "timezone": "America/Phoenix"
    },
    {
      "id": 270,
      "name": "Suzhou",
      "ascii_name": "Suzhou",
      "country": "China",
      "country_code": "CN",
      "latitude": 33.63611,
      "longitude": 116.97889,
      "elevation_m": 34,
      "population": 1647642,
      "timezone": "Asia/Shanghai"
    },
    {
      "id": 271,
      "name": "Ecatepec de Morelos",
      "ascii_name": "Ecatepec de Morelos",
      "country": "Mexico",
      "country_code": "MX",
      "latitude": 19.60492,
      "longitude": -99.06064,
      "elevation_m": 2306,
      "population": 1645352,
      "timezone": "America/Mexico_City"
    },
    {
      "id": 272,
      "name": "Lu’an",
      "ascii_name": "Lu'an",
      "country": "China",
      "country_code": "CN",
      "latitude": 31.73561,
      "longitude": 116.51688,
      "elevation_m": 81,
      "population": 1644344,
      "timezone": "Asia/Shanghai"
    },
    {
      "id": 273,
      "name": "Valencia",
      "ascii_name": "Valencia",
      "country": "Venezuela, Bolivarian Rep. of",
      "country_code": "VE",
      "latitude": 10.16153,
      "longitude": -68.00044,
      "elevation_m": 547,
      "population": 1619470,
      "timezone": "America/Caracas"
    },
    {
      "id": 274,
      "name": "Ludhiana",
      "ascii_name": "Ludhiana",
      "country": "India",
      "country_code": "IN",
      "latitude": 30.91204,
      "longitude": 75.85379,
      "elevation_m": 256,
      "population": 1618879,
      "timezone": "Asia/Kolkata"
    },
    {
      "id": 275,
      "name": "Yancheng",
      "ascii_name": "Yancheng",
      "country": "China",
      "country_code": "CN",
      "latitude": 33.3575,
      "longitude": 120.1573,
      "elevation_m": 3,
      "population": 1615717,
      "timezone": "Asia/Shanghai"
    },
    {
      "id": 276,
      "name": "Novosibirsk",
      "ascii_name": "Novosibirsk",
      "country": "Russian Federation",
      "country_code": "RU",
      "latitude": 55.02259,
      "longitude": 82.93175,
      "elevation_m": 113,
      "population": 1612833,
      "timezone": "Asia/Novosibirsk"
    },
    {
      "id": 277,
      "name": "Erbil",
      "ascii_name": "Erbil",
      "country": "Iraq",
      "country_code": "IQ",
      "latitude": 36.19117,
      "longitude": 44.00943,
      "elevation_m": 429,
      "population": 1612700,
      "timezone": "Asia/Baghdad"
    },
    {
      "id": 278,
      "name": "Fukuoka",
      "ascii_name": "Fukuoka",
      "country": "Japan",
      "country_code": "JP",
      "latitude": 33.6,
      "longitude": 130.41667,
      "elevation_m": 3,
      "population": 1612392,
      "timezone": "Asia/Tokyo"
    },
    {
      "id": 279,
      "name": "Taizhou",
      "ascii_name": "Taizhou",
      "country": "China",
      "country_code": "CN",
      "latitude": 32.49069,
      "longitude": 119.90812,
      "elevation_m": 10,
      "population": 1607108,
      "timezone": "Asia/Shanghai"
    },
    {
      "id": 280,
      "name": "Daqing",
      "ascii_name": "Daqing",
      "country": "China",
      "country_code": "CN",
      "latitude": 46.58333,
      "longitude": 125.0,
      "elevation_m": 146,
      "population": 1604027,
      "timezone": "Asia/Shanghai"
    },
    {
      "id": 281,
      "name": "Manila",
      "ascii_name": "Manila",
      "country": "Philippines",
      "country_code": "PH",
      "latitude": 14.6042,
      "longitude": 120.9822,
      "elevation_m": 13,
      "population": 1600000,
      "timezone": "Asia/Manila"
    },
    {
      "id": 282,
      "name": "Wuhu",
      "ascii_name": "Wuhu",
      "country": "China",
      "country_code": "CN",
      "latitude": 31.35259,
      "longitude": 118.42947,
      "elevation_m": 9,
      "population": 1598165,
      "timezone": "Asia/Shanghai"
    },
    {
      "id": 283,
      "name": "Santiago de Querétaro",
      "ascii_name": "Santiago de Queretaro",
      "country": "Mexico",
      "country_code": "MX",
      "latitude": 20.58806,
      "longitude": -100.38806,
      "elevation_m": 1826,
      "population": 1594212,
      "timezone": "America/Mexico_City"
    },
    {
      "id": 284,
      "name": "Dazhou",
      "ascii_name": "Dazhou",
      "country": "China",
      "country_code": "CN",
      "latitude": 31.2106,
      "longitude": 107.46308,
      "elevation_m": 292,
      "population": 1589435,
      "timezone": "Asia/Shanghai"
    },
    {
      "id": 285,
      "name": "Yangzhou",
      "ascii_name": "Yangzhou",
      "country": "China",
      "country_code": "CN",
      "latitude": 32.39722,
      "longitude": 119.43583,
      "elevation_m": 14,
      "population": 1584237,
      "timezone": "Asia/Shanghai"
    },
    {
      "id": 286,
      "name": "León de los Aldama",
      "ascii_name": "Leon de los Aldama",
      "country": "Mexico",
      "country_code": "MX",
      "latitude": 21.12908,
      "longitude": -101.67374,
      "elevation_m": 1806,
      "population": 1579803,
      "timezone": "America/Mexico_City"
    },
    {
      "id": 287,
      "name": "Makkah",
      "ascii_name": "Makkah",
      "country": "Saudi Arabia",
      "country_code": "SA",
      "latitude": 21.42664,
      "longitude": 39.82563,
      "elevation_m": 333,
      "population": 1578722,
      "timezone": "Asia/Riyadh"
    },
    {
      "id": 288,
      "name": "Philadelphia",
      "ascii_name": "Philadelphia",
      "country": "United States",
      "country_code": "US",
      "latitude": 39.95238,
      "longitude": -75.16362,
      "elevation_m": "12",
      "population": 1573916,
      "timezone": "America/New_York"
    },
    {
      "id": 289,
      "name": "Phnom Penh",
      "ascii_name": "Phnom Penh",
      "country": "Cambodia",
      "country_code": "KH",
      "latitude": 11.56245,
      "longitude": 104.91601,
      "elevation_m": 20,
      "population": 1573544,
      "timezone": "Asia/Phnom_Penh"
    },
    {
      "id": 290,
      "name": "Guilin",
      "ascii_name": "Guilin",
      "country": "China",
      "country_code": "CN",
      "latitude": 25.28022,
      "longitude": 110.29639,
      "elevation_m": 141,
      "population": 1572300,
      "timezone": "Asia/Shanghai"
    },
    {
      "id": 291,
      "name": "Damascus",
      "ascii_name": "Damascus",
      "country": "Syrian Arab Republic",
      "country_code": "SY",
      "latitude": 33.5102,
      "longitude": 36.29128,
      "elevation_m": 701,
      "population": 1569394,
      "timezone": "Asia/Damascus"
    },
    {
      "id": 292,
      "name": "Quetta",
      "ascii_name": "Quetta",
      "country": "Pakistan",
      "country_code": "PK",
      "latitude": 30.18414,
      "longitude": 67.00141,
      "elevation_m": 1683,
      "population": 1565546,
      "timezone": "Asia/Karachi"
    },
    {
      "id": 293,
      "name": "Zhaoqing",
      "ascii_name": "Zhaoqing",
      "country": "China",
      "country_code": "CN",
      "latitude": 23.04893,
      "longitude": 112.46091,
      "elevation_m": 16,
      "population": 1553109,
      "timezone": "Asia/Shanghai"
    },
    {
      "id": 294,
      "name": "Onitsha",
      "ascii_name": "Onitsha",
      "country": "Nigeria",
      "country_code": "NG",
      "latitude": 6.14978,
      "longitude": 6.78569,
      "elevation_m": 57,
      "population": 1553000,
      "timezone": "Africa/Lagos"
    },
    {
      "id": 295,
      "name": "Mianyang",
      "ascii_name": "Mianyang",
      "country": "China",
      "country_code": "CN",
      "latitude": 31.46784,
      "longitude": 104.68168,
      "elevation_m": 471,
      "population": 1550000,
      "timezone": "Asia/Shanghai"
    },
    {
      "id": 296,
      "name": "Isfahan",
      "ascii_name": "Isfahan",
      "country": "Iran, Islamic Rep. of",
      "country_code": "IR",
      "latitude": 32.65246,
      "longitude": 51.67462,
      "elevation_m": 1578,
      "population": 1547164,
      "timezone": "Asia/Tehran"
    },
    {
      "id": 297,
      "name": "Wanzhou",
      "ascii_name": "Wanzhou",
      "country": "China",
      "country_code": "CN",
      "latitude": 30.76451,
      "longitude": 108.39586,
      "elevation_m": 205,
      "population": 1545900,
      "timezone": "Asia/Shanghai"
    },
    {
      "id": 298,
      "name": "Harare",
      "ascii_name": "Harare",
      "country": "Zimbabwe",
      "country_code": "ZW",
      "latitude": -17.82772,
      "longitude": 31.05337,
      "elevation_m": 1494,
      "population": 1542813,
      "timezone": "Africa/Harare"
    },
    {
      "id": 299,
      "name": "Monrovia",
      "ascii_name": "Monrovia",
      "country": "Liberia",
      "country_code": "LR",
      "latitude": 6.30054,
      "longitude": -10.7969,
      "elevation_m": 32,
      "population": 1542549,
      "timezone": "Africa/Monrovia"
    },
    {
      "id": 300,
      "name": "Putian",
      "ascii_name": "Putian",
      "country": "China",
      "country_code": "CN",
      "latitude": 25.43944,
      "longitude": 119.01028,
      "elevation_m": 23,
      "population": 1539389,
      "timezone": "Asia/Shanghai"
    },
    {
      "id": 301,
      "name": "Kawasaki",
      "ascii_name": "Kawasaki",
      "country": "Japan",
      "country_code": "JP",
      "latitude": 35.52056,
      "longitude": 139.71722,
      "elevation_m": 1,
      "population": 1538262,
      "timezone": "Asia/Tokyo"
    },
    {
      "id": 302,
      "name": "Shangqiu",
      "ascii_name": "Shangqiu",
      "country": "China",
      "country_code": "CN",
      "latitude": 34.45,
      "longitude": 115.65,
      "elevation_m": 51,
      "population": 1536392,
      "timezone": "Asia/Shanghai"
    },
    {
      "id": 303,
      "name": "Goiânia",
      "ascii_name": "Goiania",
      "country": "Brazil",
      "country_code": "BR",
      "latitude": -16.67861,
      "longitude": -49.25389,
      "elevation_m": 766,
      "population": 1536097,
      "timezone": "America/Sao_Paulo"
    },
    {
      "id": 304,
      "name": "Auckland",
      "ascii_name": "Auckland",
      "country": "New Zealand",
      "country_code": "NZ",
      "latitude": -36.84853,
      "longitude": 174.76349,
      "elevation_m": 43,
      "population": 1530500,
      "timezone": "Pacific/Auckland"
    },
    {
      "id": 305,
      "name": "San Antonio",
      "ascii_name": "San Antonio",
      "country": "United States",
      "country_code": "US",
      "latitude": 29.42412,
      "longitude": -98.49363,
      "elevation_m": "198",
      "population": 1526656,
      "timezone": "America/Chicago"
    },
    {
      "id": 306,
      "name": "Kobe",
      "ascii_name": "Kobe",
      "country": "Japan",
      "country_code": "JP",
      "latitude": 34.6913,
      "longitude": 135.183,
      "elevation_m": 35,
      "population": 1525152,
      "timezone": "Asia/Tokyo"
    },
    {
      "id": 307,
      "name": "Stockholm",
      "ascii_name": "Stockholm",
      "country": "Sweden",
      "country_code": "SE",
      "latitude": 59.32938,
      "longitude": 18.06871,
      "elevation_m": 17,
      "population": 1515017,
      "timezone": "Europe/Stockholm"
    },
    {
      "id": 308,
      "name": "Ciudad Juárez",
      "ascii_name": "Ciudad Juarez",
      "country": "Mexico",
      "country_code": "MX",
      "latitude": 31.72024,
      "longitude": -106.46084,
      "elevation_m": 1124,
      "population": 1512450,
      "timezone": "America/Ciudad_Juarez"
    },
    {
      "id": 309,
      "name": "Cần Thơ",
      "ascii_name": "Can Tho",
      "country": "Viet Nam",
      "country_code": "VN",
      "latitude": 10.03711,
      "longitude": 105.78825,
      "elevation_m": 3,
      "population": 1507187,
      "timezone": "Asia/Ho_Chi_Minh"
    },
    {
      "id": 310,
      "name": "Khulna",
      "ascii_name": "Khulna",
      "country": "Bangladesh",
      "country_code": "BD",
      "latitude": 22.80979,
      "longitude": 89.56439,
      "elevation_m": 8,
      "population": 1500689,
      "timezone": "Asia/Dhaka"
    },
    {
      "id": 311,
      "name": "Belém",
      "ascii_name": "Belem",
      "country": "Brazil",
      "country_code": "BR",
      "latitude": -1.45583,
      "longitude": -48.50444,
      "elevation_m": 15,
      "population": 1499641,
      "timezone": "America/Belem"
    },
    {
      "id": 312,
      "name": "Yekaterinburg",
      "ascii_name": "Yekaterinburg",
      "country": "Russian Federation",
      "country_code": "RU",
      "latitude": 56.85733,
      "longitude": 60.61529,
      "elevation_m": 278,
      "population": 1495066,
      "timezone": "Asia/Yekaterinburg"
    },
    {
      "id": 313,
      "name": "Porto Alegre",
      "ascii_name": "Porto Alegre",
      "country": "Brazil",
      "country_code": "BR",
      "latitude": -30.03283,
      "longitude": -51.23019,
      "elevation_m": 46,
      "population": 1488252,
      "timezone": "America/Sao_Paulo"
    },
    {
      "id": 314,
      "name": "Yinchuan",
      "ascii_name": "Yinchuan",
      "country": "China",
      "country_code": "CN",
      "latitude": 38.46806,
      "longitude": 106.27306,
      "elevation_m": 1117,
      "population": 1487579,
      "timezone": "Asia/Shanghai"
    },
    {
      "id": 315,
      "name": "Manhattan",
      "ascii_name": "Manhattan",
      "country": "United States",
      "country_code": "US",
      "latitude": 40.78343,
      "longitude": -73.96625,
      "elevation_m": "35",
      "population": 1487536,
      "timezone": "America/New_York"
    },
    {
      "id": 316,
      "name": "Nashik",
      "ascii_name": "Nashik",
      "country": "India",
      "country_code": "IN",
      "latitude": 19.99727,
      "longitude": 73.79096,
      "elevation_m": 584,
      "population": 1486053,
      "timezone": "Asia/Kolkata"
    },
    {
      "id": 317,
      "name": "Taizhou",
      "ascii_name": "Taizhou",
      "country": "China",
      "country_code": "CN",
      "latitude": 28.66266,
      "longitude": 121.43312,
      "elevation_m": 15,
      "population": 1485502,
      "timezone": "Asia/Shanghai"
    },
    {
      "id": 318,
      "name": "Asunción",
      "ascii_name": "Asuncion",
      "country": "Paraguay",
      "country_code": "PY",
      "latitude": -25.28646,
      "longitude": -57.647,
      "elevation_m": 113,
      "population": 1482200,
      "timezone": "America/Asuncion"
    },
    {
      "id": 319,
      "name": "Yiwu",
      "ascii_name": "Yiwu",
      "country": "China",
      "country_code": "CN",
      "latitude": 29.31506,
      "longitude": 120.07676,
      "elevation_m": 84,
      "population": 1481384,
      "timezone": "Asia/Shanghai"
    },
    {
      "id": 320,
      "name": "Zapopan",
      "ascii_name": "Zapopan",
      "country": "Mexico",
      "country_code": "MX",
      "latitude": 20.72111,
      "longitude": -103.38742,
      "elevation_m": 1565,
      "population": 1476491,
      "timezone": "America/Mexico_City"
    },
    {
      "id": 321,
      "name": "Daejeon",
      "ascii_name": "Daejeon",
      "country": "Korea, Republic of",
      "country_code": "KR",
      "latitude": 36.34913,
      "longitude": 127.38493,
      "elevation_m": 58,
      "population": 1470336,
      "timezone": "Asia/Seoul"
    },
    {
      "id": 322,
      "name": "Adelaide",
      "ascii_name": "Adelaide",
      "country": "Australia",
      "country_code": "AU",
      "latitude": -34.92866,
      "longitude": 138.59863,
      "elevation_m": 59,
      "population": 1469163,
      "timezone": "Australia/Adelaide"
    },
    {
      "id": 323,
      "name": "Quanzhou",
      "ascii_name": "Quanzhou",
      "country": "China",
      "country_code": "CN",
      "latitude": 24.91389,
      "longitude": 118.58583,
      "elevation_m": 14,
      "population": 1469157,
      "timezone": "Asia/Shanghai"
    },
    {
      "id": 324,
      "name": "Madurai",
      "ascii_name": "Madurai",
      "country": "India",
      "country_code": "IN",
      "latitude": 9.919,
      "longitude": 78.11953,
      "elevation_m": 139,
      "population": 1465625,
      "timezone": "Asia/Kolkata"
    },
    {
      "id": 325,
      "name": "Jinhua",
      "ascii_name": "Jinhua",
      "country": "China",
      "country_code": "CN",
      "latitude": 29.10678,
      "longitude": 119.64421,
      "elevation_m": 55,
      "population": 1463990,
      "timezone": "Asia/Shanghai"
    },
    {
      "id": 326,
      "name": "Kyoto",
      "ascii_name": "Kyoto",
      "country": "Japan",
      "country_code": "JP",
      "latitude": 35.02107,
      "longitude": 135.75385,
      "elevation_m": 50,
      "population": 1463723,
      "timezone": "Asia/Tokyo"
    },
    {
      "id": 327,
      "name": "Cixi",
      "ascii_name": "Cixi",
      "country": "China",
      "country_code": "CN",
      "latitude": 30.1764,
      "longitude": 121.2457,
      "elevation_m": 11,
      "population": 1457510,
      "timezone": "Asia/Shanghai"
    },
    {
      "id": 328,
      "name": "Changde",
      "ascii_name": "Changde",
      "country": "China",
      "country_code": "CN",
      "latitude": 29.03205,
      "longitude": 111.69844,
      "elevation_m": 38,
      "population": 1457419,
      "timezone": "Asia/Shanghai"
    },
    {
      "id": 329,
      "name": "Kuala Lumpur",
      "ascii_name": "Kuala Lumpur",
      "country": "Malaysia",
      "country_code": "MY",
      "latitude": 3.1412,
      "longitude": 101.68653,
      "elevation_m": 56,
      "population": 1453975,
      "timezone": "Asia/Kuala_Lumpur"
    },
    {
      "id": 330,
      "name": "Kaifeng",
      "ascii_name": "Kaifeng",
      "country": "China",
      "country_code": "CN",
      "latitude": 34.7986,
      "longitude": 114.30742,
      "elevation_m": 76,
      "population": 1451741,
      "timezone": "Asia/Shanghai"
    },
    {
      "id": 331,
      "name": "Anshan",
      "ascii_name": "Anshan",
      "country": "China",
      "country_code": "CN",
      "latitude": 41.12361,
      "longitude": 122.99,
      "elevation_m": 55,
      "population": 1450000,
      "timezone": "Asia/Shanghai"
    },
    {
      "id": 332,
      "name": "Karaj",
      "ascii_name": "Karaj",
      "country": "Iran, Islamic Rep. of",
      "country_code": "IR",
      "latitude": 35.83266,
      "longitude": 50.99155,
      "elevation_m": 1341,
      "population": 1448075,
      "timezone": "Asia/Tehran"
    },
    {
      "id": 333,
      "name": "Kathmandu",
      "ascii_name": "Kathmandu",
      "country": "Nepal",
      "country_code": "NP",
      "latitude": 27.70169,
      "longitude": 85.3206,
      "elevation_m": "1317",
      "population": 1442271,
      "timezone": "Asia/Kathmandu"
    },
    {
      "id": 334,
      "name": "Baoji",
      "ascii_name": "Baoji",
      "country": "China",
      "country_code": "CN",
      "latitude": 34.36775,
      "longitude": 107.23705,
      "elevation_m": 567,
      "population": 1437802,
      "timezone": "Asia/Shanghai"
    },
    {
      "id": 335,
      "name": "Suqian",
      "ascii_name": "Suqian",
      "country": "China",
      "country_code": "CN",
      "latitude": 33.94917,
      "longitude": 118.29583,
      "elevation_m": 23,
      "population": 1437685,
      "timezone": "Asia/Shanghai"
    },
    {
      "id": 336,
      "name": "Liuzhou",
      "ascii_name": "Liuzhou",
      "country": "China",
      "country_code": "CN",
      "latitude": 24.32405,
      "longitude": 109.40698,
      "elevation_m": 102,
      "population": 1436599,
      "timezone": "Asia/Shanghai"
    },
    {
      "id": 337,
      "name": "Tirunelveli",
      "ascii_name": "Tirunelveli",
      "country": "India",
      "country_code": "IN",
      "latitude": 8.72742,
      "longitude": 77.6838,
      "elevation_m": 49,
      "population": 1435844,
      "timezone": "Asia/Kolkata"
    },
    {
      "id": 338,
      "name": "Kayseri",
      "ascii_name": "Kayseri",
      "country": "Turkey",
      "country_code": "TR",
      "latitude": 38.73222,
      "longitude": 35.48528,
      "elevation_m": 1054,
      "population": 1434357,
      "timezone": "Europe/Istanbul"
    },
    {
      "id": 339,
      "name": "Kharkiv",
      "ascii_name": "Kharkiv",
      "country": "Ukraine",
      "country_code": "UA",
      "latitude": 49.98177,
      "longitude": 36.25475,
      "elevation_m": 128,
      "population": 1433886,
      "timezone": "Europe/Kyiv"
    },
    {
      "id": 340,
      "name": "Konya",
      "ascii_name": "Konya",
      "country": "Turkey",
      "country_code": "TR",
      "latitude": 37.87135,
      "longitude": 32.48464,
      "elevation_m": 1030,
      "population": 1433861,
      "timezone": "Europe/Istanbul"
    },
    {
      "id": 341,
      "name": "Zhangjiagang",
      "ascii_name": "Zhangjiagang",
      "country": "China",
      "country_code": "CN",
      "latitude": 31.865,
      "longitude": 120.53889,
      "elevation_m": 13,
      "population": 1432044,
      "timezone": "Asia/Shanghai"
    },
    {
      "id": 342,
      "name": "Agra",
      "ascii_name": "Agra",
      "country": "India",
      "country_code": "IN",
      "latitude": 27.18333,
      "longitude": 78.01667,
      "elevation_m": 166,
      "population": 1430055,
      "timezone": "Asia/Kolkata"
    },